{
"type": "FeatureCollection",
"name": "AnimalOperationsPermits",
"crs": { "type": "name", "properties": { "name": "urn:ogc:def:crs:OGC:1.3:CRS84" } },
"features": [
{ "type": "Feature", "properties": { "FID": 1, "Permit": "AWS070002", "Permittee": "Ted and Jack Allen Inc", "Facility": "Ted and Jack Allen, Inc. # 2", "Type": "Swine State COC", "Region": "Washington", "County": "Beaufort", "FirstIssue": "1999-08-06T00:00:00Z", "Issued": "2014-10-01T00:00:00Z", "Expries": "2019-09-30T00:00:00Z", "Status": "Active", "Latitude": 35.4926, "Longitude": -77.1323 }, "geometry": { "type": "Point", "coordinates": [ -77.132302135999964, 35.492607068000041 ] } },
{ "type": "Feature", "properties": { "FID": 2, "Permit": "AWS240047", "Permittee": "Tgb Farms LLC", "Facility": "Wooten Farm", "Type": "Swine State COC", "Region": "Wilmington", "County": "Columbus", "FirstIssue": "2000-09-01T00:00:00Z", "Issued": "2014-10-01T00:00:00Z", "Expries": "2019-09-30T00:00:00Z", "Status": "Active", "Latitude": 34.4381, "Longitude": -78.7347 }, "geometry": { "type": "Point", "coordinates": [ -78.734702569999968, 34.43810678400007 ] } },
{ "type": "Feature", "properties": { "FID": 3, "Permit": "AWS310302", "Permittee": "Tgb Farms LLC", "Facility": "Legacy Sow Farm", "Type": "Swine State COC", "Region": "Wilmington", "County": "Duplin", "FirstIssue": "1999-04-30T00:00:00Z", "Issued": "2014-10-01T00:00:00Z", "Expries": "2019-09-30T00:00:00Z", "Status": "Active", "Latitude": 35.035624, "Longitude": -77.963323 }, "geometry": { "type": "Point", "coordinates": [ -77.963325365999935, 35.035630941000079 ] } },
{ "type": "Feature", "properties": { "FID": 4, "Permit": "AWS710015", "Permittee": "Tgb Farms LLC", "Facility": "Shady Oak Farm", "Type": "Swine State COC", "Region": "Wilmington", "County": "Pender", "FirstIssue": "2000-06-23T00:00:00Z", "Issued": "2014-10-01T00:00:00Z", "Expries": "2019-09-30T00:00:00Z", "Status": "Active", "Latitude": 34.7106, "Longitude": -77.9428 }, "geometry": { "type": "Point", "coordinates": [ -77.942802343999972, 34.710606870000049 ] } },
{ "type": "Feature", "properties": { "FID": 5, "Permit": "AWS330002", "Permittee": "The Hanor Company Inc", "Facility": "Shellbank Farm", "Type": "Swine State COC", "Region": "Raleigh", "County": "Edgecombe", "FirstIssue": "1998-09-09T00:00:00Z", "Issued": "2014-10-01T00:00:00Z", "Expries": "2019-09-30T00:00:00Z", "Status": "Active", "Latitude": 35.9583, "Longitude": -77.6878 }, "geometry": { "type": "Point", "coordinates": [ -77.687802328999965, 35.958307150000053 ] } },
{ "type": "Feature", "properties": { "FID": 6, "Permit": "AWS330007", "Permittee": "The Hanor Company Inc", "Facility": "Creekside Farm", "Type": "Swine State COC", "Region": "Raleigh", "County": "Edgecombe", "FirstIssue": "2003-04-09T00:00:00Z", "Issued": "2014-10-01T00:00:00Z", "Expries": "2019-09-30T00:00:00Z", "Status": "Active", "Latitude": 35.8889, "Longitude": -77.3781 }, "geometry": { "type": "Point", "coordinates": [ -77.378102230999957, 35.888907146000065 ] } },
{ "type": "Feature", "properties": { "FID": 7, "Permit": "AWS330008", "Permittee": "The Hanor Company Inc", "Facility": "CAJ One Inc", "Type": "Swine State COC", "Region": "Raleigh", "County": "Edgecombe", "FirstIssue": "2003-04-09T00:00:00Z", "Issued": "2014-10-01T00:00:00Z", "Expries": "2019-09-30T00:00:00Z", "Status": "Active", "Latitude": 36.0456, "Longitude": -77.5508 }, "geometry": { "type": "Point", "coordinates": [ -77.550802291999958, 36.045607174000054 ] } },
{ "type": "Feature", "properties": { "FID": 8, "Permit": "AWS330058", "Permittee": "The Hanor Company Inc", "Facility": "Hanor Multiplier", "Type": "Swine State COC", "Region": "Raleigh", "County": "Edgecombe", "FirstIssue": "2003-04-09T00:00:00Z", "Issued": "2014-10-01T00:00:00Z", "Expries": "2019-09-30T00:00:00Z", "Status": "Active", "Latitude": 36.0519, "Longitude": -77.6367 }, "geometry": { "type": "Point", "coordinates": [ -77.636702317999948, 36.051907172000028 ] } },
{ "type": "Feature", "properties": { "FID": 9, "Permit": "AWS330061", "Permittee": "The Hanor Company Inc", "Facility": "Polly Ridge", "Type": "Swine State COC", "Region": "Raleigh", "County": "Edgecombe", "FirstIssue": "2003-04-09T00:00:00Z", "Issued": "2014-10-01T00:00:00Z", "Expries": "2019-09-30T00:00:00Z", "Status": "Active", "Latitude": 35.9831, "Longitude": -77.3992 }, "geometry": { "type": "Point", "coordinates": [ -77.399202241999944, 35.983107165000035 ] } },
{ "type": "Feature", "properties": { "FID": 10, "Permit": "AWS640021", "Permittee": "The Hanor Company Inc", "Facility": "Whitakers", "Type": "Swine State COC", "Region": "Raleigh", "County": "Nash", "FirstIssue": "2003-04-09T00:00:00Z", "Issued": "2014-10-01T00:00:00Z", "Expries": "2019-09-30T00:00:00Z", "Status": "Active", "Latitude": 36.139876, "Longitude": -77.759504 }, "geometry": { "type": "Point", "coordinates": [ -77.759506360999978, 36.139883187000066 ] } },
{ "type": "Feature", "properties": { "FID": 11, "Permit": "AWS820291", "Permittee": "The John E Hodges Family Trust", "Facility": "Hodges Livestock", "Type": "Swine State COC", "Region": "Fayetteville", "County": "Sampson", "FirstIssue": "1998-08-27T00:00:00Z", "Issued": "2014-10-01T00:00:00Z", "Expries": "2019-09-30T00:00:00Z", "Status": "Active", "Latitude": 35.20943, "Longitude": -78.548075 }, "geometry": { "type": "Point", "coordinates": [ -78.548077551999938, 35.209436959000072 ] } },
{ "type": "Feature", "properties": { "FID": 12, "Permit": "AWS820207", "Permittee": "The McLamb Corp", "Facility": "J.M. Farm", "Type": "Swine State COC", "Region": "Fayetteville", "County": "Sampson", "FirstIssue": "1999-11-10T00:00:00Z", "Issued": "2014-10-01T00:00:00Z", "Expries": "2019-09-30T00:00:00Z", "Status": "Active", "Latitude": 34.826177, "Longitude": -78.207166 }, "geometry": { "type": "Point", "coordinates": [ -78.207168428999978, 34.82618388700007 ] } },
{ "type": "Feature", "properties": { "FID": 13, "Permit": "AWS820312", "Permittee": "The McLamb Corp", "Facility": "Top Hog (Delway 23-1,23-2,23-3,23-4)", "Type": "Swine State COC", "Region": "Fayetteville", "County": "Sampson", "FirstIssue": "1999-09-17T00:00:00Z", "Issued": "2014-10-01T00:00:00Z", "Expries": "2019-09-30T00:00:00Z", "Status": "Active", "Latitude": 34.829697, "Longitude": -78.198055 }, "geometry": { "type": "Point", "coordinates": [ -78.198057426999981, 34.82970388800004 ] } },
{ "type": "Feature", "properties": { "FID": 14, "Permit": "AWS430020", "Permittee": "Thomas Contractors Inc", "Facility": "Keith Thomas (P-60)", "Type": "Swine State COC", "Region": "Fayetteville", "County": "Harnett", "FirstIssue": "1998-06-08T00:00:00Z", "Issued": "2014-10-01T00:00:00Z", "Expries": "2019-09-30T00:00:00Z", "Status": "Active", "Latitude": 35.434735, "Longitude": -78.867717 }, "geometry": { "type": "Point", "coordinates": [ -78.867719659999977, 35.43474199700006 ] } },
{ "type": "Feature", "properties": { "FID": 15, "Permit": "AWI010009", "Permittee": "Holliday, William", "Facility": "Hollidays Farm", "Type": "Animal Individual State", "Region": "Winston-Salem", "County": "Alamance", "FirstIssue": "2014-09-22T00:00:00Z", "Issued": "2014-09-22T00:00:00Z", "Expries": "2019-08-31T00:00:00Z", "Status": "Active", "Latitude": 35.8792, "Longitude": -79.3758 }, "geometry": { "type": "Point", "coordinates": [ -79.375802836999981, 35.879207074000078 ] } },
{ "type": "Feature", "properties": { "FID": 16, "Permit": "AWS820059", "Permittee": "Thornton Enterprises", "Facility": "Thornton Enterprises (Old Farm)", "Type": "Swine State COC", "Region": "Fayetteville", "County": "Sampson", "FirstIssue": "1997-09-22T00:00:00Z", "Issued": "2014-10-01T00:00:00Z", "Expries": "2019-09-30T00:00:00Z", "Status": "Active", "Latitude": 35.084158, "Longitude": -78.271872 }, "geometry": { "type": "Point", "coordinates": [ -78.271874461999971, 35.08416494100004 ] } },
{ "type": "Feature", "properties": { "FID": 17, "Permit": "AWI040001", "Permittee": "Xiong, Pao", "Facility": "Xiong Farm", "Type": "Animal Individual State", "Region": "Fayetteville", "County": "Anson", "FirstIssue": "2008-04-18T00:00:00Z", "Issued": "2008-04-18T00:00:00Z", "Expries": "2013-03-30T00:00:00Z", "Status": "Expired", "Latitude": 35.116958, "Longitude": -80.256519 }, "geometry": { "type": "Point", "coordinates": [ -80.256522060999941, 35.116964879000079 ] } },
{ "type": "Feature", "properties": { "FID": 18, "Permit": "AWS820474", "Permittee": "Three W Farms LLC", "Facility": "Three W Farms, LLC", "Type": "Swine State COC", "Region": "Fayetteville", "County": "Sampson", "FirstIssue": "1997-11-14T00:00:00Z", "Issued": "2014-10-01T00:00:00Z", "Expries": "2019-09-30T00:00:00Z", "Status": "Active", "Latitude": 34.938263, "Longitude": -78.232072 }, "geometry": { "type": "Point", "coordinates": [ -78.232074441999941, 34.938269911000077 ] } },
{ "type": "Feature", "properties": { "FID": 19, "Permit": "AWI040003", "Permittee": "Briles, Virgil", "Facility": "Flint Ridge Pullet Farm", "Type": "Animal Individual State", "Region": "Fayetteville", "County": "Anson", "FirstIssue": "2009-06-22T00:00:00Z", "Issued": "2014-12-30T00:00:00Z", "Expries": "2019-11-30T00:00:00Z", "Status": "Active", "Latitude": 35.182138, "Longitude": -80.276524 }, "geometry": { "type": "Point", "coordinates": [ -80.276527069999986, 35.182144892000053 ] } },
{ "type": "Feature", "properties": { "FID": 20, "Permit": "AWS250010", "Permittee": "Trc Farms Inc", "Facility": "TRC Farms, Inc.", "Type": "Swine State COC", "Region": "Washington", "County": "Craven", "FirstIssue": "2003-04-09T00:00:00Z", "Issued": "2014-10-01T00:00:00Z", "Expries": "2019-09-30T00:00:00Z", "Status": "Active", "Latitude": 35.2722, "Longitude": -77.33245 }, "geometry": { "type": "Point", "coordinates": [ -77.332452185999955, 35.27220701400006 ] } },
{ "type": "Feature", "properties": { "FID": 21, "Permit": "AWI070047", "Permittee": "Boyd, James", "Facility": "3B Farms", "Type": "Animal Individual State", "Region": "Washington", "County": "Beaufort", "FirstIssue": "2007-10-05T00:00:00Z", "Issued": "2007-10-05T00:00:00Z", "Expries": "2012-09-30T00:00:00Z", "Status": "Expired", "Latitude": 35.5675, "Longitude": -76.8823 }, "geometry": { "type": "Point", "coordinates": [ -76.882302062999941, 35.567507093000074 ] } },
{ "type": "Feature", "properties": { "FID": 22, "Permit": "AWS820126", "Permittee": "Triad Farms Inc", "Facility": "Triad Farms #1 and #2", "Type": "Swine State COC", "Region": "Fayetteville", "County": "Sampson", "FirstIssue": "1998-12-07T00:00:00Z", "Issued": "2014-10-01T00:00:00Z", "Expries": "2019-09-30T00:00:00Z", "Status": "Active", "Latitude": 34.839036, "Longitude": -78.223655 }, "geometry": { "type": "Point", "coordinates": [ -78.22365743499995, 34.839042889000041 ] } },
{ "type": "Feature", "properties": { "FID": 23, "Permit": "AWI070051", "Permittee": "Hudson, Blanche", "Facility": "Gray Road Hog Farm Inc.", "Type": "Animal Individual State", "Region": "Washington", "County": "Beaufort", "FirstIssue": "2011-08-08T00:00:00Z", "Issued": "2011-08-08T00:00:00Z", "Expries": "2016-07-31T00:00:00Z", "Status": "Active", "Latitude": 35.4886, "Longitude": -77.1 }, "geometry": { "type": "Point", "coordinates": [ -77.100002125999936, 35.488607069000068 ] } },
{ "type": "Feature", "properties": { "FID": 24, "Permit": "AWS310296", "Permittee": "Triple H Swine LLC", "Facility": "Evan Nursery & Ash Nursery", "Type": "Swine State COC", "Region": "Wilmington", "County": "Duplin", "FirstIssue": "2000-06-16T00:00:00Z", "Issued": "2014-10-01T00:00:00Z", "Expries": "2019-09-30T00:00:00Z", "Status": "Active", "Latitude": 35.0106, "Longitude": -77.9697 }, "geometry": { "type": "Point", "coordinates": [ -77.969702366999968, 35.010606935000055 ] } },
{ "type": "Feature", "properties": { "FID": 25, "Permit": "AWI090025", "Permittee": "Storms, William", "Facility": "Storms Farm Waste to Energy Digester Facilities", "Type": "Animal Individual State", "Region": "Fayetteville", "County": "Bladen", "FirstIssue": "2012-01-23T00:00:00Z", "Issued": "2014-05-22T00:00:00Z", "Expries": "2016-12-31T00:00:00Z", "Status": "Active", "Latitude": 34.547755, "Longitude": -78.745588 }, "geometry": { "type": "Point", "coordinates": [ -78.745590577999963, 34.547761808000075 ] } },
{ "type": "Feature", "properties": { "FID": 26, "Permit": "AWC490080", "Permittee": "Triple J Dairy Inc", "Facility": "Triple J. Dairy, Inc.", "Type": "Cattle State COC", "Region": "Mooresville", "County": "Iredell", "FirstIssue": "2000-09-29T00:00:00Z", "Issued": "2014-10-01T00:00:00Z", "Expries": "2019-09-30T00:00:00Z", "Status": "Active", "Latitude": 35.9067, "Longitude": -80.96 }, "geometry": { "type": "Point", "coordinates": [ -80.960003314999938, 35.906707021000045 ] } },
{ "type": "Feature", "properties": { "FID": 27, "Permit": "AWI190024", "Permittee": "Lindley, Janice", "Facility": "Lindley Farms", "Type": "Animal Individual State", "Region": "Raleigh", "County": "Chatham", "FirstIssue": "2012-01-26T00:00:00Z", "Issued": "2012-01-26T00:00:00Z", "Expries": "2016-12-31T00:00:00Z", "Status": "Active", "Latitude": 35.8364, "Longitude": -79.3814 }, "geometry": { "type": "Point", "coordinates": [ -79.38140283599995, 35.83640706400007 ] } },
{ "type": "Feature", "properties": { "FID": 28, "Permit": "AWI190039", "Permittee": "Crabb, Robert", "Facility": "Carolina Stockyards Inc.", "Type": "Animal Individual State", "Region": "Raleigh", "County": "Chatham", "FirstIssue": "2005-09-07T00:00:00Z", "Issued": "2012-11-08T00:00:00Z", "Expries": "2017-10-31T00:00:00Z", "Status": "Active", "Latitude": 35.7367, "Longitude": -79.4986 }, "geometry": { "type": "Point", "coordinates": [ -79.498602865999942, 35.736707039000066 ] } },
{ "type": "Feature", "properties": { "FID": 29, "Permit": "AWS820577", "Permittee": "Triple J Farms Inc", "Facility": "Triple J Farms", "Type": "Swine State COC", "Region": "Fayetteville", "County": "Sampson", "FirstIssue": "1998-09-25T00:00:00Z", "Issued": "2014-10-01T00:00:00Z", "Expries": "2019-09-30T00:00:00Z", "Status": "Active", "Latitude": 35.214111, "Longitude": -78.538766 }, "geometry": { "type": "Point", "coordinates": [ -78.53876854899994, 35.214117960000067 ] } },
{ "type": "Feature", "properties": { "FID": 30, "Permit": "AWI240025", "Permittee": "Hewett, Robert", "Facility": "Robert Hewitt Farm", "Type": "Animal Individual State", "Region": "Wilmington", "County": "Columbus", "FirstIssue": "2009-10-06T00:00:00Z", "Issued": "2015-02-12T00:00:00Z", "Expries": "2020-01-31T00:00:00Z", "Status": "Active", "Latitude": 34.1553, "Longitude": -78.8239 }, "geometry": { "type": "Point", "coordinates": [ -78.823902582999949, 34.155306719000066 ] } },
{ "type": "Feature", "properties": { "FID": 31, "Permit": "AWS820696", "Permittee": "Triple L Livestock Inc", "Facility": "Triple L Livestock, Inc. & Triple L Farms", "Type": "Swine State COC", "Region": "Fayetteville", "County": "Sampson", "FirstIssue": "2003-04-09T00:00:00Z", "Issued": "2014-10-01T00:00:00Z", "Expries": "2019-09-30T00:00:00Z", "Status": "Active", "Latitude": 35.139238, "Longitude": -78.372075 }, "geometry": { "type": "Point", "coordinates": [ -78.372077494999985, 35.139244950000034 ] } },
{ "type": "Feature", "properties": { "FID": 32, "Permit": "AWI260011", "Permittee": "Pate, W", "Facility": "Pate Farm", "Type": "Animal Individual State", "Region": "Fayetteville", "County": "Cumberland", "FirstIssue": "2012-03-27T00:00:00Z", "Issued": "2012-03-27T00:00:00Z", "Expries": "2017-02-28T00:00:00Z", "Status": "Active", "Latitude": 34.914519, "Longitude": -78.826036 }, "geometry": { "type": "Point", "coordinates": [ -78.826038620999952, 34.914525885000046 ] } },
{ "type": "Feature", "properties": { "FID": 33, "Permit": "AWS400013", "Permittee": "Triple S Swine Farm LLC", "Facility": "Triple S Swine Farm", "Type": "Swine State COC", "Region": "Washington", "County": "Greene", "FirstIssue": "1997-08-18T00:00:00Z", "Issued": "2014-10-01T00:00:00Z", "Expries": "2019-09-30T00:00:00Z", "Status": "Active", "Latitude": 35.4364, "Longitude": -77.8153 }, "geometry": { "type": "Point", "coordinates": [ -77.815302340999949, 35.43640703300008 ] } },
{ "type": "Feature", "properties": { "FID": 34, "Permit": "AWS310399", "Permittee": "Triumph Associates LLC", "Facility": "Triumph Farm", "Type": "Swine State COC", "Region": "Wilmington", "County": "Duplin", "FirstIssue": "1997-11-17T00:00:00Z", "Issued": "2014-10-01T00:00:00Z", "Expries": "2019-09-30T00:00:00Z", "Status": "Active", "Latitude": 35.0569, "Longitude": -77.9242 }, "geometry": { "type": "Point", "coordinates": [ -77.924202354999977, 35.056906947000073 ] } },
{ "type": "Feature", "properties": { "FID": 35, "Permit": "AWI260023", "Permittee": "Smith, Strauce", "Facility": "K&M Farms", "Type": "Animal Individual State", "Region": "Fayetteville", "County": "Cumberland", "FirstIssue": "2009-10-08T00:00:00Z", "Issued": "2014-12-11T00:00:00Z", "Expries": "2019-11-30T00:00:00Z", "Status": "Active", "Latitude": 34.872772, "Longitude": -78.5661 }, "geometry": { "type": "Point", "coordinates": [ -78.566102539999974, 34.872778885000059 ] } },
{ "type": "Feature", "properties": { "FID": 36, "Permit": "AWI310595", "Permittee": "Dixon, James", "Facility": "James W. Dixon Farm", "Type": "Animal Individual State", "Region": "Wilmington", "County": "Duplin", "FirstIssue": "2009-12-15T00:00:00Z", "Issued": "2009-12-15T00:00:00Z", "Expries": "2014-11-30T00:00:00Z", "Status": "Expired", "Latitude": 34.9483, "Longitude": -78.0797 }, "geometry": { "type": "Point", "coordinates": [ -78.079702396999949, 34.948306918000071 ] } },
{ "type": "Feature", "properties": { "FID": 37, "Permit": "AWI750004", "Permittee": "Tryon Equestrian Properties LLC", "Facility": "Tryon International Equestrian Center Facility", "Type": "Animal Individual State", "Region": "Asheville", "County": "Polk", "FirstIssue": "2014-03-28T00:00:00Z", "Issued": "2014-03-28T00:00:00Z", "Expries": "2019-02-28T00:00:00Z", "Status": "Active", "Latitude": 35.2831, "Longitude": -82.0694 }, "geometry": { "type": "Point", "coordinates": [ -82.069403608999949, 35.283106848000045 ] } },
{ "type": "Feature", "properties": { "FID": 38, "Permit": "AWS310057", "Permittee": "Turner Farms LLC", "Facility": "Turner Farms, LLC", "Type": "Swine State COC", "Region": "Wilmington", "County": "Duplin", "FirstIssue": "2003-04-09T00:00:00Z", "Issued": "2014-10-01T00:00:00Z", "Expries": "2019-09-30T00:00:00Z", "Status": "Active", "Latitude": 35.0222, "Longitude": -78.0361 }, "geometry": { "type": "Point", "coordinates": [ -78.036102386999971, 35.022206936000032 ] } },
{ "type": "Feature", "properties": { "FID": 39, "Permit": "AWI310630", "Permittee": "Usher, Leo", "Facility": "Howard Usher Farm", "Type": "Animal Individual State", "Region": "Wilmington", "County": "Duplin", "FirstIssue": "2010-07-22T00:00:00Z", "Issued": "2010-07-22T00:00:00Z", "Expries": "2015-06-30T00:00:00Z", "Status": "Expired", "Latitude": 34.8433, "Longitude": -78.14 }, "geometry": { "type": "Point", "coordinates": [ -78.140002409999965, 34.843306893000033 ] } },
{ "type": "Feature", "properties": { "FID": 40, "Permit": "AWS070007", "Permittee": "Vanguard Farms Inc", "Facility": "Vanguard Farms Inc", "Type": "Swine State COC", "Region": "Washington", "County": "Beaufort", "FirstIssue": "2003-04-15T00:00:00Z", "Issued": "2014-10-01T00:00:00Z", "Expries": "2019-09-30T00:00:00Z", "Status": "Active", "Latitude": 35.44314, "Longitude": -77.12842 }, "geometry": { "type": "Point", "coordinates": [ -77.128422131999969, 35.443147058000079 ] } },
{ "type": "Feature", "properties": { "FID": 41, "Permit": "AWI320003", "Permittee": "Falk, David", "Facility": "Kingsmill Farm II", "Type": "Animal Individual State", "Region": "Raleigh", "County": "Durham", "FirstIssue": "2012-01-23T00:00:00Z", "Issued": "2012-01-23T00:00:00Z", "Expries": "2016-12-31T00:00:00Z", "Status": "Active", "Latitude": 35.9606, "Longitude": -78.7528 }, "geometry": { "type": "Point", "coordinates": [ -78.752802652999947, 35.960607113000037 ] } },
{ "type": "Feature", "properties": { "FID": 42, "Permit": "AWS090203", "Permittee": "Murphy-Brown LLC", "Facility": "Mr. Holmes Sites #1 - #14, #1 7, #18, Blueberry Sow, Bladen ,Ammon, and Cypress Creek Farm", "Type": "Swine State COC", "Region": "Fayetteville", "County": "Bladen", "FirstIssue": "2003-04-10T00:00:00Z", "Issued": "2015-02-20T00:00:00Z", "Expries": "2019-09-30T00:00:00Z", "Status": "Active", "Latitude": 34.819191, "Longitude": -78.544711 }, "geometry": { "type": "Point", "coordinates": [ -78.544713530999957, 34.819197874000054 ] } },
{ "type": "Feature", "properties": { "FID": 43, "Permit": "AWS400007", "Permittee": "Vanrack Inc", "Facility": "Vandiford Swine Farm", "Type": "Swine State COC", "Region": "Washington", "County": "Greene", "FirstIssue": "1997-09-08T00:00:00Z", "Issued": "2014-10-01T00:00:00Z", "Expries": "2019-09-30T00:00:00Z", "Status": "Active", "Latitude": 35.5158, "Longitude": -77.5989 }, "geometry": { "type": "Point", "coordinates": [ -77.598902278999958, 35.515807058000064 ] } },
{ "type": "Feature", "properties": { "FID": 44, "Permit": "AWI330038", "Permittee": "Brake, Carl", "Facility": "Medora Farm", "Type": "Animal Individual State", "Region": "Raleigh", "County": "Edgecombe", "FirstIssue": "2014-08-19T00:00:00Z", "Issued": "2014-08-19T00:00:00Z", "Expries": null, "Status": "Active", "Latitude": 35.925, "Longitude": -77.7486 }, "geometry": { "type": "Point", "coordinates": [ -77.748602345999984, 35.925007141000037 ] } },
{ "type": "Feature", "properties": { "FID": 45, "Permit": "AWS400146", "Permittee": "Vanrack Inc", "Facility": "Vandiford Swine #3", "Type": "Swine State COC", "Region": "Washington", "County": "Greene", "FirstIssue": "1997-11-14T00:00:00Z", "Issued": "2014-10-01T00:00:00Z", "Expries": "2019-09-30T00:00:00Z", "Status": "Active", "Latitude": 35.515, "Longitude": -77.6044 }, "geometry": { "type": "Point", "coordinates": [ -77.604402280999977, 35.515007057000048 ] } },
{ "type": "Feature", "properties": { "FID": 46, "Permit": "AWS090204", "Permittee": "Murphy-Brown LLC", "Facility": "Mr. Holmes Sites #15 & #16", "Type": "Swine State COC", "Region": "Fayetteville", "County": "Bladen", "FirstIssue": "2003-04-09T00:00:00Z", "Issued": "2014-10-01T00:00:00Z", "Expries": "2019-09-30T00:00:00Z", "Status": "Active", "Latitude": 34.838905, "Longitude": -78.531 }, "geometry": { "type": "Point", "coordinates": [ -78.531002527999988, 34.838911879000079 ] } },
{ "type": "Feature", "properties": { "FID": 47, "Permit": "AWI330039", "Permittee": "Shelton, Ben", "Facility": "Ben Shelton Farm", "Type": "Animal Individual State", "Region": "Raleigh", "County": "Edgecombe", "FirstIssue": "2009-10-06T00:00:00Z", "Issued": "2009-10-06T00:00:00Z", "Expries": "2014-09-30T00:00:00Z", "Status": "Expired", "Latitude": 35.725, "Longitude": -77.6389 }, "geometry": { "type": "Point", "coordinates": [ -77.638902301999963, 35.725007102000063 ] } },
{ "type": "Feature", "properties": { "FID": 48, "Permit": "AWS520064", "Permittee": "W & P Farms Inc", "Facility": "W&P Farms Inc", "Type": "Swine State COC", "Region": "Washington", "County": "Jones", "FirstIssue": "1999-06-25T00:00:00Z", "Issued": "2014-10-01T00:00:00Z", "Expries": "2019-09-30T00:00:00Z", "Status": "Active", "Latitude": 35.1064, "Longitude": -77.4 }, "geometry": { "type": "Point", "coordinates": [ -77.400002197999981, 35.106406975000027 ] } },
{ "type": "Feature", "properties": { "FID": 49, "Permit": "AWS820470", "Permittee": "Murphy-Brown LLC", "Facility": "Farm 2028", "Type": "Swine State COC", "Region": "Fayetteville", "County": "Sampson", "FirstIssue": "1997-07-28T00:00:00Z", "Issued": "2014-10-01T00:00:00Z", "Expries": "2019-09-30T00:00:00Z", "Status": "Active", "Latitude": 34.954036, "Longitude": -78.214186 }, "geometry": { "type": "Point", "coordinates": [ -78.214188437999951, 34.954042915000059 ] } },
{ "type": "Feature", "properties": { "FID": 50, "Permit": "AWS090208", "Permittee": "Murphy-Brown LLC", "Facility": "2601-2", "Type": "Swine State COC", "Region": "Fayetteville", "County": "Bladen", "FirstIssue": "2000-02-18T00:00:00Z", "Issued": "2014-10-01T00:00:00Z", "Expries": "2019-09-30T00:00:00Z", "Status": "Active", "Latitude": 34.82, "Longitude": -78.501877 }, "geometry": { "type": "Point", "coordinates": [ -78.501879517999953, 34.820006876000036 ] } },
{ "type": "Feature", "properties": { "FID": 51, "Permit": "AWI330041", "Permittee": "Skinner, Alton", "Facility": "Alton R. Skinner Farms", "Type": "Animal Individual State", "Region": "Raleigh", "County": "Edgecombe", "FirstIssue": "2013-09-23T00:00:00Z", "Issued": "2013-09-23T00:00:00Z", "Expries": null, "Status": "Active", "Latitude": 35.8133, "Longitude": -77.5 }, "geometry": { "type": "Point", "coordinates": [ -77.500002263999988, 35.813307125000051 ] } },
{ "type": "Feature", "properties": { "FID": 52, "Permit": "AWS310113", "Permittee": "W S Matthews Farms Inc", "Facility": "W S Matthews Farms", "Type": "Swine State COC", "Region": "Wilmington", "County": "Duplin", "FirstIssue": "2003-04-09T00:00:00Z", "Issued": "2014-10-01T00:00:00Z", "Expries": "2019-09-30T00:00:00Z", "Status": "Active", "Latitude": 34.9519, "Longitude": -78.1025 }, "geometry": { "type": "Point", "coordinates": [ -78.102502403999949, 34.951906918000077 ] } },
{ "type": "Feature", "properties": { "FID": 53, "Permit": "AWS820471", "Permittee": "Murphy-Brown LLC", "Facility": "2070", "Type": "Swine State COC", "Region": "Fayetteville", "County": "Sampson", "FirstIssue": "1998-05-26T00:00:00Z", "Issued": "2014-10-01T00:00:00Z", "Expries": "2019-09-30T00:00:00Z", "Status": "Active", "Latitude": 34.807358, "Longitude": -78.29968 }, "geometry": { "type": "Point", "coordinates": [ -78.299682455999971, 34.80736488000008 ] } },
{ "type": "Feature", "properties": { "FID": 54, "Permit": "AWS240001", "Permittee": "Murphy-Brown LLC", "Facility": "Farm 3417", "Type": "Swine State COC", "Region": "Wilmington", "County": "Columbus", "FirstIssue": "1997-05-05T00:00:00Z", "Issued": "2014-10-01T00:00:00Z", "Expries": "2019-09-30T00:00:00Z", "Status": "Active", "Latitude": 34.4167, "Longitude": -78.6917 }, "geometry": { "type": "Point", "coordinates": [ -78.691702555999939, 34.416706781000073 ] } },
{ "type": "Feature", "properties": { "FID": 55, "Permit": "AWI330064", "Permittee": "Skinner, Alton", "Facility": "Alton R. Skinner Farms #2", "Type": "Animal Individual State", "Region": "Raleigh", "County": "Edgecombe", "FirstIssue": "2014-04-21T00:00:00Z", "Issued": "2014-04-21T00:00:00Z", "Expries": null, "Status": "Active", "Latitude": 35.8133, "Longitude": -77.5 }, "geometry": { "type": "Point", "coordinates": [ -77.500002263999988, 35.813307125000051 ] } },
{ "type": "Feature", "properties": { "FID": 56, "Permit": "AWS310328", "Permittee": "W S Matthews Farms Inc", "Facility": "W S Matthews Farms #2", "Type": "Swine State COC", "Region": "Wilmington", "County": "Duplin", "FirstIssue": "2003-04-09T00:00:00Z", "Issued": "2014-10-01T00:00:00Z", "Expries": "2019-09-30T00:00:00Z", "Status": "Active", "Latitude": 34.9667, "Longitude": -78.0908 }, "geometry": { "type": "Point", "coordinates": [ -78.090802400999962, 34.966706922000071 ] } },
{ "type": "Feature", "properties": { "FID": 57, "Permit": "AWS820640", "Permittee": "Murphy-Brown LLC", "Facility": "S-1 and S-2", "Type": "Swine State COC", "Region": "Fayetteville", "County": "Sampson", "FirstIssue": "2003-04-09T00:00:00Z", "Issued": "2014-10-01T00:00:00Z", "Expries": "2019-09-30T00:00:00Z", "Status": "Active", "Latitude": 35.173024, "Longitude": -78.238747 }, "geometry": { "type": "Point", "coordinates": [ -78.238749455999937, 35.173030962000041 ] } },
{ "type": "Feature", "properties": { "FID": 58, "Permit": "AWS240103", "Permittee": "Murphy-Brown LLC", "Facility": "Farm 7694", "Type": "Swine State COC", "Region": "Wilmington", "County": "Columbus", "FirstIssue": "1997-05-27T00:00:00Z", "Issued": "2014-10-01T00:00:00Z", "Expries": "2019-09-30T00:00:00Z", "Status": "Active", "Latitude": 34.15, "Longitude": -78.65 }, "geometry": { "type": "Point", "coordinates": [ -78.650002529999938, 34.150006723000047 ] } },
{ "type": "Feature", "properties": { "FID": 59, "Permit": "AWI350001", "Permittee": "Gardner, Robert", "Facility": "Gardner Farms 2", "Type": "Animal Individual State", "Region": "Raleigh", "County": "Franklin", "FirstIssue": "2007-07-20T00:00:00Z", "Issued": "2013-01-29T00:00:00Z", "Expries": null, "Status": "Active", "Latitude": 36.0736, "Longitude": -78.1347 }, "geometry": { "type": "Point", "coordinates": [ -78.134702470999969, 36.073607159000062 ] } },
{ "type": "Feature", "properties": { "FID": 60, "Permit": "AWS310680", "Permittee": "W S Matthews Farms Inc", "Facility": "W. S. Matthews Farms", "Type": "Swine State COC", "Region": "Wilmington", "County": "Duplin", "FirstIssue": "2001-04-03T00:00:00Z", "Issued": "2014-10-01T00:00:00Z", "Expries": "2019-09-30T00:00:00Z", "Status": "Active", "Latitude": 34.9619, "Longitude": -78.0717 }, "geometry": { "type": "Point", "coordinates": [ -78.071702394999988, 34.961906921000036 ] } },
{ "type": "Feature", "properties": { "FID": 61, "Permit": "AWS820642", "Permittee": "Murphy-Brown LLC", "Facility": "Waycross Farm", "Type": "Swine State COC", "Region": "Fayetteville", "County": "Sampson", "FirstIssue": "2003-04-09T00:00:00Z", "Issued": "2014-10-01T00:00:00Z", "Expries": "2019-09-30T00:00:00Z", "Status": "Active", "Latitude": 34.835319, "Longitude": -78.181572 }, "geometry": { "type": "Point", "coordinates": [ -78.181574421999983, 34.835325890000036 ] } },
{ "type": "Feature", "properties": { "FID": 62, "Permit": "AWS250016", "Permittee": "Murphy-Brown LLC", "Facility": "Askin Boar Stud", "Type": "Swine State COC", "Region": "Washington", "County": "Craven", "FirstIssue": "1999-05-17T00:00:00Z", "Issued": "2014-10-01T00:00:00Z", "Expries": "2019-09-30T00:00:00Z", "Status": "Active", "Latitude": 35.2139, "Longitude": -77.003442 }, "geometry": { "type": "Point", "coordinates": [ -77.003444082999977, 35.21390701200005 ] } },
{ "type": "Feature", "properties": { "FID": 63, "Permit": "AWS820384", "Permittee": "W S Matthews Farms Inc", "Facility": "William S Matthews Farm", "Type": "Swine State COC", "Region": "Fayetteville", "County": "Sampson", "FirstIssue": "2000-06-05T00:00:00Z", "Issued": "2014-10-01T00:00:00Z", "Expries": "2019-09-30T00:00:00Z", "Status": "Active", "Latitude": 35.0375, "Longitude": -78.1631 }, "geometry": { "type": "Point", "coordinates": [ -78.163102426999956, 35.037506935000067 ] } },
{ "type": "Feature", "properties": { "FID": 64, "Permit": "AWI370037", "Permittee": "Lawrence, M", "Facility": "Lawrence Farms", "Type": "Animal Individual State", "Region": "Washington", "County": "Gates", "FirstIssue": "2014-04-11T00:00:00Z", "Issued": "2014-04-11T00:00:00Z", "Expries": null, "Status": "Active", "Latitude": 36.4478, "Longitude": -76.7594 }, "geometry": { "type": "Point", "coordinates": [ -76.759402069999965, 36.447807287000046 ] } },
{ "type": "Feature", "properties": { "FID": 65, "Permit": "AWS820647", "Permittee": "Murphy-Brown LLC", "Facility": "Farm #31 / 3731", "Type": "Swine State COC", "Region": "Fayetteville", "County": "Sampson", "FirstIssue": "1997-09-05T00:00:00Z", "Issued": "2014-10-01T00:00:00Z", "Expries": "2019-09-30T00:00:00Z", "Status": "Active", "Latitude": 34.924416, "Longitude": -78.510452 }, "geometry": { "type": "Point", "coordinates": [ -78.510454526, 34.924422898000046 ] } },
{ "type": "Feature", "properties": { "FID": 66, "Permit": "AWS260070", "Permittee": "Murphy-Brown LLC", "Facility": "242 Farm", "Type": "Swine State COC", "Region": "Fayetteville", "County": "Cumberland", "FirstIssue": "1997-10-27T00:00:00Z", "Issued": "2014-10-01T00:00:00Z", "Expries": "2019-09-30T00:00:00Z", "Status": "Active", "Latitude": 34.85195, "Longitude": -78.550383 }, "geometry": { "type": "Point", "coordinates": [ -78.550385533999986, 34.851956881000035 ] } },
{ "type": "Feature", "properties": { "FID": 67, "Permit": "AWS510128", "Permittee": "Wakefield Land Co LLC", "Facility": "TDM Farm 29 (W.T. Herring 100 ac. Site)", "Type": "Swine State COC", "Region": "Raleigh", "County": "Johnston", "FirstIssue": "2003-04-09T00:00:00Z", "Issued": "2014-10-01T00:00:00Z", "Expries": "2019-09-30T00:00:00Z", "Status": "Active", "Latitude": 35.2814, "Longitude": -78.34 }, "geometry": { "type": "Point", "coordinates": [ -78.34000249199994, 35.281406982000078 ] } },
{ "type": "Feature", "properties": { "FID": 68, "Permit": "AWI400017", "Permittee": "Murphrey, Everette", "Facility": "Everette Murphrey Farm", "Type": "Animal Individual State", "Region": "Washington", "County": "Greene", "FirstIssue": "2005-12-22T00:00:00Z", "Issued": "2010-07-06T00:00:00Z", "Expries": "2015-06-30T00:00:00Z", "Status": "Expired", "Latitude": 35.5333, "Longitude": -77.5619 }, "geometry": { "type": "Point", "coordinates": [ -77.561902268999972, 35.533307063000052 ] } },
{ "type": "Feature", "properties": { "FID": 69, "Permit": "AWS820652", "Permittee": "Murphy-Brown LLC", "Facility": "Sampson Boar Stud / Farm 78060", "Type": "Swine State COC", "Region": "Fayetteville", "County": "Sampson", "FirstIssue": "2001-01-08T00:00:00Z", "Issued": "2014-10-01T00:00:00Z", "Expries": "2019-09-30T00:00:00Z", "Status": "Active", "Latitude": 34.708861, "Longitude": -78.345352 }, "geometry": { "type": "Point", "coordinates": [ -78.345354464999957, 34.70886785700003 ] } },
{ "type": "Feature", "properties": { "FID": 70, "Permit": "AWS310005", "Permittee": "Murphy-Brown LLC", "Facility": "Scott Farm Sites 1-4", "Type": "Swine State COC", "Region": "Wilmington", "County": "Duplin", "FirstIssue": "2003-04-09T00:00:00Z", "Issued": "2014-10-01T00:00:00Z", "Expries": "2019-09-30T00:00:00Z", "Status": "Active", "Latitude": 35.0467, "Longitude": -78.09 }, "geometry": { "type": "Point", "coordinates": [ -78.09000240499995, 35.046706939000046 ] } },
{ "type": "Feature", "properties": { "FID": 71, "Permit": "AWS310545", "Permittee": "Wallace Family Farms LLC", "Facility": "Popeye Farm", "Type": "Swine State COC", "Region": "Wilmington", "County": "Duplin", "FirstIssue": "2001-05-14T00:00:00Z", "Issued": "2014-10-01T00:00:00Z", "Expries": "2019-09-30T00:00:00Z", "Status": "Active", "Latitude": 35.0869, "Longitude": -77.8772 }, "geometry": { "type": "Point", "coordinates": [ -77.877202341999975, 35.086906955000075 ] } },
{ "type": "Feature", "properties": { "FID": 72, "Permit": "AWI410001", "Permittee": "Holt, Robert", "Facility": "Robert Dale Holt", "Type": "Animal Individual State", "Region": "Winston-Salem", "County": "Guilford", "FirstIssue": "2015-04-07T00:00:00Z", "Issued": "2015-04-07T00:00:00Z", "Expries": "2020-03-31T00:00:00Z", "Status": "Active", "Latitude": 35.9383, "Longitude": -79.5533 }, "geometry": { "type": "Point", "coordinates": [ -79.553302893999955, 35.938307080000072 ] } },
{ "type": "Feature", "properties": { "FID": 73, "Permit": "AWS820682", "Permittee": "Murphy-Brown LLC", "Facility": "Stafford Farm", "Type": "Swine State COC", "Region": "Fayetteville", "County": "Sampson", "FirstIssue": "2003-04-09T00:00:00Z", "Issued": "2014-10-01T00:00:00Z", "Expries": "2019-09-30T00:00:00Z", "Status": "Active", "Latitude": 34.815566, "Longitude": -78.386316 }, "geometry": { "type": "Point", "coordinates": [ -78.386318482999968, 34.815572879000058 ] } },
{ "type": "Feature", "properties": { "FID": 74, "Permit": "AWS820378", "Permittee": "Waller Farms Inc", "Facility": "Waller Farms, Inc.", "Type": "Swine State COC", "Region": "Fayetteville", "County": "Sampson", "FirstIssue": "1998-05-29T00:00:00Z", "Issued": "2014-10-01T00:00:00Z", "Expries": "2019-09-30T00:00:00Z", "Status": "Active", "Latitude": 35.193933, "Longitude": -78.173977 }, "geometry": { "type": "Point", "coordinates": [ -78.173979437999947, 35.193939968000052 ] } },
{ "type": "Feature", "properties": { "FID": 75, "Permit": "AWS310006", "Permittee": "Murphy-Brown LLC", "Facility": "Smith-Alderman Farm", "Type": "Swine State COC", "Region": "Wilmington", "County": "Duplin", "FirstIssue": "2003-04-09T00:00:00Z", "Issued": "2014-10-01T00:00:00Z", "Expries": "2019-09-30T00:00:00Z", "Status": "Active", "Latitude": 34.7806, "Longitude": -78.1694 }, "geometry": { "type": "Point", "coordinates": [ -78.169402415999969, 34.780606878000071 ] } },
{ "type": "Feature", "properties": { "FID": 76, "Permit": "AWI430022", "Permittee": "Craig, Timothy", "Facility": "Slippery Rock Farm", "Type": "Animal Individual State", "Region": "Fayetteville", "County": "Harnett", "FirstIssue": "2012-06-15T00:00:00Z", "Issued": "2012-06-15T00:00:00Z", "Expries": "2017-05-31T00:00:00Z", "Status": "Active", "Latitude": 35.541568, "Longitude": -78.885872 }, "geometry": { "type": "Point", "coordinates": [ -78.885874670999954, 35.541575019000049 ] } },
{ "type": "Feature", "properties": { "FID": 77, "Permit": "AWS820715", "Permittee": "Murphy-Brown LLC", "Facility": "Carroll's Farm # 2096", "Type": "Swine State COC", "Region": "Fayetteville", "County": "Sampson", "FirstIssue": "1997-08-26T00:00:00Z", "Issued": "2014-10-01T00:00:00Z", "Expries": "2019-09-30T00:00:00Z", "Status": "Active", "Latitude": 34.966888, "Longitude": -78.589944 }, "geometry": { "type": "Point", "coordinates": [ -78.589946551999958, 34.966894905000061 ] } },
{ "type": "Feature", "properties": { "FID": 78, "Permit": "AWS820013", "Permittee": "Warren Farming Company", "Facility": "Warren Swine Farms (King Farm)", "Type": "Swine State COC", "Region": "Fayetteville", "County": "Sampson", "FirstIssue": "2003-04-09T00:00:00Z", "Issued": "2014-10-01T00:00:00Z", "Expries": "2019-09-30T00:00:00Z", "Status": "Active", "Latitude": 35.23293, "Longitude": -78.323372 }, "geometry": { "type": "Point", "coordinates": [ -78.323374484999988, 35.232936972000061 ] } },
{ "type": "Feature", "properties": { "FID": 79, "Permit": "AWS310035", "Permittee": "Murphy-Brown LLC", "Facility": "Waters Farm 1-5  M&M Rivenbark", "Type": "Swine State COC", "Region": "Wilmington", "County": "Duplin", "FirstIssue": "2003-04-09T00:00:00Z", "Issued": "2014-10-01T00:00:00Z", "Expries": "2019-09-30T00:00:00Z", "Status": "Active", "Latitude": 34.8733, "Longitude": -78.15 }, "geometry": { "type": "Point", "coordinates": [ -78.150002413999971, 34.873306899000056 ] } },
{ "type": "Feature", "properties": { "FID": 80, "Permit": "AWI430029", "Permittee": "Butler, William", "Facility": "W. Thomas Butler Farms, LLC", "Type": "Animal Individual State", "Region": "Fayetteville", "County": "Harnett", "FirstIssue": "2011-09-02T00:00:00Z", "Issued": "2015-11-17T00:00:00Z", "Expries": "2016-08-31T00:00:00Z", "Status": "Active", "Latitude": 35.322333, "Longitude": -78.943123 }, "geometry": { "type": "Point", "coordinates": [ -78.943125676999955, 35.32233997000003 ] } },
{ "type": "Feature", "properties": { "FID": 81, "Permit": "AWS820731", "Permittee": "Murphy-Brown LLC", "Facility": "Farm 2148", "Type": "Swine State COC", "Region": "Fayetteville", "County": "Sampson", "FirstIssue": "2011-05-05T00:00:00Z", "Issued": "2014-10-01T00:00:00Z", "Expries": "2019-09-30T00:00:00Z", "Status": "Active", "Latitude": 35.059033, "Longitude": -78.206909 }, "geometry": { "type": "Point", "coordinates": [ -78.206911440999988, 35.059039938000069 ] } },
{ "type": "Feature", "properties": { "FID": 82, "Permit": "AWS820019", "Permittee": "Warren Farming Company", "Facility": "Kennedy Farm #1", "Type": "Swine State COC", "Region": "Fayetteville", "County": "Sampson", "FirstIssue": "1998-12-14T00:00:00Z", "Issued": "2014-10-01T00:00:00Z", "Expries": "2019-09-30T00:00:00Z", "Status": "Active", "Latitude": 35.199114, "Longitude": -78.251505 }, "geometry": { "type": "Point", "coordinates": [ -78.25150746099996, 35.199120967000056 ] } },
{ "type": "Feature", "properties": { "FID": 83, "Permit": "AWS310039", "Permittee": "Murphy-Brown LLC", "Facility": "Benson Farm", "Type": "Swine State COC", "Region": "Wilmington", "County": "Duplin", "FirstIssue": "2003-04-09T00:00:00Z", "Issued": "2014-10-01T00:00:00Z", "Expries": "2019-09-30T00:00:00Z", "Status": "Active", "Latitude": 35.0619, "Longitude": -77.9978 }, "geometry": { "type": "Point", "coordinates": [ -77.99780237799996, 35.061906946000079 ] } },
{ "type": "Feature", "properties": { "FID": 84, "Permit": "AWI490006", "Permittee": "Shelton, Ben", "Facility": "Rocky Creek Dairy", "Type": "Animal Individual State", "Region": "Mooresville", "County": "Iredell", "FirstIssue": "1998-07-21T00:00:00Z", "Issued": "2014-12-18T00:00:00Z", "Expries": "2019-12-31T00:00:00Z", "Status": "Active", "Latitude": 35.9203, "Longitude": -80.7542 }, "geometry": { "type": "Point", "coordinates": [ -80.754203253999947, 35.920307032000039 ] } },
{ "type": "Feature", "properties": { "FID": 85, "Permit": "AWS830006", "Permittee": "Murphy-Brown LLC", "Facility": "Farm 5573", "Type": "Swine State COC", "Region": "Fayetteville", "County": "Scotland", "FirstIssue": "1997-05-05T00:00:00Z", "Issued": "2014-10-01T00:00:00Z", "Expries": "2019-09-30T00:00:00Z", "Status": "Active", "Latitude": 34.662669, "Longitude": -79.46216 }, "geometry": { "type": "Point", "coordinates": [ -79.462162798999941, 34.662675809000064 ] } },
{ "type": "Feature", "properties": { "FID": 86, "Permit": "AWS820121", "Permittee": "Warren Farming Company", "Facility": "Warren Farming Company-McLamb Farm", "Type": "Swine State COC", "Region": "Fayetteville", "County": "Sampson", "FirstIssue": "1998-12-28T00:00:00Z", "Issued": "2014-10-01T00:00:00Z", "Expries": "2019-09-30T00:00:00Z", "Status": "Active", "Latitude": 35.126217, "Longitude": -78.296514 }, "geometry": { "type": "Point", "coordinates": [ -78.296516470999961, 35.126223949000064 ] } },
{ "type": "Feature", "properties": { "FID": 87, "Permit": "AWS310041", "Permittee": "Murphy-Brown LLC", "Facility": "Cottle Farm", "Type": "Swine State COC", "Region": "Wilmington", "County": "Duplin", "FirstIssue": "2003-04-09T00:00:00Z", "Issued": "2014-10-01T00:00:00Z", "Expries": "2019-09-30T00:00:00Z", "Status": "Active", "Latitude": 35.044596, "Longitude": -77.936535 }, "geometry": { "type": "Point", "coordinates": [ -77.936537357999953, 35.044602944000076 ] } },
{ "type": "Feature", "properties": { "FID": 88, "Permit": "AWI490031", "Permittee": "Lowman, Paul", "Facility": "Ray Lowman Dairy Farm", "Type": "Animal Individual State", "Region": "Mooresville", "County": "Iredell", "FirstIssue": "2010-05-14T00:00:00Z", "Issued": "2010-05-14T00:00:00Z", "Expries": "2015-04-30T00:00:00Z", "Status": "Expired", "Latitude": 35.9, "Longitude": -80.8636 }, "geometry": { "type": "Point", "coordinates": [ -80.863603284999954, 35.900007023000057 ] } },
{ "type": "Feature", "properties": { "FID": 89, "Permit": "AWS310059", "Permittee": "Murphy-Brown LLC", "Facility": "Brown Farm", "Type": "Swine State COC", "Region": "Wilmington", "County": "Duplin", "FirstIssue": "2003-04-09T00:00:00Z", "Issued": "2014-10-01T00:00:00Z", "Expries": "2019-09-30T00:00:00Z", "Status": "Active", "Latitude": 34.9508, "Longitude": -78.0481 }, "geometry": { "type": "Point", "coordinates": [ -78.048102386999972, 34.950806920000048 ] } },
{ "type": "Feature", "properties": { "FID": 90, "Permit": "AWS830007", "Permittee": "Murphy-Brown LLC", "Facility": "Farm 5574", "Type": "Swine State COC", "Region": "Fayetteville", "County": "Scotland", "FirstIssue": "1997-05-05T00:00:00Z", "Issued": "2014-10-01T00:00:00Z", "Expries": "2019-09-30T00:00:00Z", "Status": "Active", "Latitude": 34.798776, "Longitude": -79.41135 }, "geometry": { "type": "Point", "coordinates": [ -79.411352790999956, 34.798782840000058 ] } },
{ "type": "Feature", "properties": { "FID": 91, "Permit": "AWS820214", "Permittee": "Warren Farming Company", "Facility": "Swain Farm", "Type": "Swine State COC", "Region": "Fayetteville", "County": "Sampson", "FirstIssue": "1998-09-09T00:00:00Z", "Issued": "2014-10-01T00:00:00Z", "Expries": "2019-09-30T00:00:00Z", "Status": "Active", "Latitude": 35.152794, "Longitude": -78.271369 }, "geometry": { "type": "Point", "coordinates": [ -78.271371464999959, 35.152800956000078 ] } },
{ "type": "Feature", "properties": { "FID": 92, "Permit": "AWI490048", "Permittee": "Stamey, Robert", "Facility": "Stamey Farm", "Type": "Animal Individual State", "Region": "Mooresville", "County": "Iredell", "FirstIssue": "2011-10-17T00:00:00Z", "Issued": "2011-10-17T00:00:00Z", "Expries": "2016-09-30T00:00:00Z", "Status": "Active", "Latitude": 35.7778, "Longitude": -80.9736 }, "geometry": { "type": "Point", "coordinates": [ -80.973603310999977, 35.77780699300007 ] } },
{ "type": "Feature", "properties": { "FID": 93, "Permit": "AWS310102", "Permittee": "Murphy-Brown LLC", "Facility": "Bostic Farm", "Type": "Swine State COC", "Region": "Wilmington", "County": "Duplin", "FirstIssue": "2003-04-09T00:00:00Z", "Issued": "2014-10-01T00:00:00Z", "Expries": "2019-09-30T00:00:00Z", "Status": "Active", "Latitude": 34.944531, "Longitude": -77.951633 }, "geometry": { "type": "Point", "coordinates": [ -77.951635357999976, 34.944537921000062 ] } },
{ "type": "Feature", "properties": { "FID": 94, "Permit": "AWS830008", "Permittee": "Murphy-Brown LLC", "Facility": "Farm 5570", "Type": "Swine State COC", "Region": "Fayetteville", "County": "Scotland", "FirstIssue": "1997-06-23T00:00:00Z", "Issued": "2014-10-01T00:00:00Z", "Expries": "2019-09-30T00:00:00Z", "Status": "Active", "Latitude": 34.806013, "Longitude": -79.379359 }, "geometry": { "type": "Point", "coordinates": [ -79.379361781999989, 34.806019843000058 ] } },
{ "type": "Feature", "properties": { "FID": 95, "Permit": "AWS820683", "Permittee": "Warren Farming Company", "Facility": "Kennedy Farm #2", "Type": "Swine State COC", "Region": "Fayetteville", "County": "Sampson", "FirstIssue": "1998-11-23T00:00:00Z", "Issued": "2014-10-01T00:00:00Z", "Expries": "2019-09-30T00:00:00Z", "Status": "Active", "Latitude": 35.193113, "Longitude": -78.253711 }, "geometry": { "type": "Point", "coordinates": [ -78.253713461999951, 35.193119965000051 ] } },
{ "type": "Feature", "properties": { "FID": 96, "Permit": "AWI510016", "Permittee": "Barham, Julian", "Facility": "Barham Farms Home Farms 48A", "Type": "Animal Individual State", "Region": "Raleigh", "County": "Johnston", "FirstIssue": "1999-08-09T00:00:00Z", "Issued": "2013-06-21T00:00:00Z", "Expries": "2016-11-30T00:00:00Z", "Status": "Active", "Latitude": 35.7047, "Longitude": -78.3156 }, "geometry": { "type": "Point", "coordinates": [ -78.315602506999937, 35.704707074000055 ] } },
{ "type": "Feature", "properties": { "FID": 97, "Permit": "AWS310143", "Permittee": "Murphy-Brown LLC", "Facility": "Johnson Sholar Farm #1 & #2", "Type": "Swine State COC", "Region": "Wilmington", "County": "Duplin", "FirstIssue": "2003-04-09T00:00:00Z", "Issued": "2014-10-01T00:00:00Z", "Expries": "2019-09-30T00:00:00Z", "Status": "Active", "Latitude": 34.8761, "Longitude": -78.0236 }, "geometry": { "type": "Point", "coordinates": [ -78.023602375999985, 34.876106904000039 ] } },
{ "type": "Feature", "properties": { "FID": 98, "Permit": "AWS830009", "Permittee": "Murphy-Brown LLC", "Facility": "Dogwood Complex / Farm 74411", "Type": "Swine State COC", "Region": "Fayetteville", "County": "Scotland", "FirstIssue": "2003-04-09T00:00:00Z", "Issued": "2014-10-01T00:00:00Z", "Expries": "2019-09-30T00:00:00Z", "Status": "Active", "Latitude": 34.895069, "Longitude": -79.430994 }, "geometry": { "type": "Point", "coordinates": [ -79.430996801999981, 34.895075860000077 ] } },
{ "type": "Feature", "properties": { "FID": 99, "Permit": "AWS820729", "Permittee": "Warren Swine Farm Inc", "Facility": "Cottle Farm", "Type": "Swine State COC", "Region": "Fayetteville", "County": "Sampson", "FirstIssue": "2007-08-01T00:00:00Z", "Issued": "2014-10-01T00:00:00Z", "Expries": "2019-09-30T00:00:00Z", "Status": "Active", "Latitude": 35.1556, "Longitude": -78.2658 }, "geometry": { "type": "Point", "coordinates": [ -78.265802463999989, 35.155606957000032 ] } },
{ "type": "Feature", "properties": { "FID": 100, "Permit": "AWI510026", "Permittee": "Johnson, Curtis", "Facility": "CC&B Johnson Farm", "Type": "Animal Individual State", "Region": "Raleigh", "County": "Johnston", "FirstIssue": "1997-10-09T00:00:00Z", "Issued": "2013-08-27T00:00:00Z", "Expries": "2018-07-31T00:00:00Z", "Status": "Active", "Latitude": 35.2869, "Longitude": -78.3833 }, "geometry": { "type": "Point", "coordinates": [ -78.38330250599995, 35.286906981000072 ] } },
{ "type": "Feature", "properties": { "FID": 101, "Permit": "AWS310204", "Permittee": "Murphy-Brown LLC", "Facility": "Nahunga Sow Farm", "Type": "Swine State COC", "Region": "Wilmington", "County": "Duplin", "FirstIssue": "2003-04-09T00:00:00Z", "Issued": "2014-10-01T00:00:00Z", "Expries": "2019-09-30T00:00:00Z", "Status": "Active", "Latitude": 35.0331, "Longitude": -77.9786 }, "geometry": { "type": "Point", "coordinates": [ -77.978602369999976, 35.033106940000039 ] } },
{ "type": "Feature", "properties": { "FID": 102, "Permit": "AWS820022", "Permittee": "Waters Bros LLC", "Facility": "Waters Bros. LLC", "Type": "Swine State COC", "Region": "Fayetteville", "County": "Sampson", "FirstIssue": "1997-08-04T00:00:00Z", "Issued": "2014-10-01T00:00:00Z", "Expries": "2019-09-30T00:00:00Z", "Status": "Active", "Latitude": 34.9454, "Longitude": -78.232719 }, "geometry": { "type": "Point", "coordinates": [ -78.232721442999946, 34.945406912000067 ] } },
{ "type": "Feature", "properties": { "FID": 103, "Permit": "AWS830010", "Permittee": "Murphy-Brown LLC", "Facility": "Farm 5096", "Type": "Swine State COC", "Region": "Fayetteville", "County": "Scotland", "FirstIssue": "1997-06-23T00:00:00Z", "Issued": "2014-10-01T00:00:00Z", "Expries": "2019-09-30T00:00:00Z", "Status": "Active", "Latitude": 34.784909, "Longitude": -79.390212 }, "geometry": { "type": "Point", "coordinates": [ -79.390214783999966, 34.784915838000074 ] } },
{ "type": "Feature", "properties": { "FID": 104, "Permit": "AWI510027", "Permittee": "Deans, Charles", "Facility": "Black Creek Nursery", "Type": "Animal Individual State", "Region": "Raleigh", "County": "Johnston", "FirstIssue": "1997-04-21T00:00:00Z", "Issued": "2012-08-23T00:00:00Z", "Expries": "2017-07-31T00:00:00Z", "Status": "Active", "Latitude": 35.472254, "Longitude": -78.58452 }, "geometry": { "type": "Point", "coordinates": [ -78.584522575999983, 35.472261015000072 ] } },
{ "type": "Feature", "properties": { "FID": 105, "Permit": "AWS310358", "Permittee": "Murphy-Brown LLC", "Facility": "BAZ-Bland Farm", "Type": "Swine State COC", "Region": "Wilmington", "County": "Duplin", "FirstIssue": "2003-04-09T00:00:00Z", "Issued": "2014-10-01T00:00:00Z", "Expries": "2019-09-30T00:00:00Z", "Status": "Active", "Latitude": 34.860436, "Longitude": -77.939721 }, "geometry": { "type": "Point", "coordinates": [ -77.939723349999952, 34.860442903000035 ] } },
{ "type": "Feature", "properties": { "FID": 106, "Permit": "AWS820733", "Permittee": "Waters Bros LLC", "Facility": "Waters Bros. LLC # 2", "Type": "Swine State COC", "Region": "Fayetteville", "County": "Sampson", "FirstIssue": "2014-10-27T00:00:00Z", "Issued": "2014-10-27T00:00:00Z", "Expries": "2019-09-30T00:00:00Z", "Status": "Active", "Latitude": 35.1311, "Longitude": -78.2353 }, "geometry": { "type": "Point", "coordinates": [ -78.235302452999974, 35.131106953000028 ] } },
{ "type": "Feature", "properties": { "FID": 107, "Permit": "AWS830012", "Permittee": "Murphy-Brown LLC", "Facility": "Carroll's Farm # 7078 - Unit 1", "Type": "Swine State COC", "Region": "Fayetteville", "County": "Scotland", "FirstIssue": "1997-07-28T00:00:00Z", "Issued": "2014-10-01T00:00:00Z", "Expries": "2019-09-30T00:00:00Z", "Status": "Active", "Latitude": 34.692227, "Longitude": -79.466016 }, "geometry": { "type": "Point", "coordinates": [ -79.466018801999951, 34.692233815000066 ] } },
{ "type": "Feature", "properties": { "FID": 108, "Permit": "AWI540078", "Permittee": "Sutton, Julian", "Facility": "Thomas Sutton Farm", "Type": "Animal Individual State", "Region": "Washington", "County": "Lenoir", "FirstIssue": "2014-11-20T00:00:00Z", "Issued": "2014-11-20T00:00:00Z", "Expries": "2019-10-31T00:00:00Z", "Status": "Active", "Latitude": 35.2442, "Longitude": -77.75765 }, "geometry": { "type": "Point", "coordinates": [ -77.757652313999984, 35.244206993000034 ] } },
{ "type": "Feature", "properties": { "FID": 109, "Permit": "AWS310376", "Permittee": "Wbw Sow Farms LLC", "Facility": "Duplin 1 & 2", "Type": "Swine State COC", "Region": "Wilmington", "County": "Duplin", "FirstIssue": "1997-07-25T00:00:00Z", "Issued": "2016-02-05T00:00:00Z", "Expries": "2019-09-30T00:00:00Z", "Status": "Active", "Latitude": 35.0022, "Longitude": -77.8553 }, "geometry": { "type": "Point", "coordinates": [ -77.855302330999962, 35.002206937000039 ] } },
{ "type": "Feature", "properties": { "FID": 110, "Permit": "AWI540082", "Permittee": "Rouse, Fannie", "Facility": "James Braxton Rouse Farm 2", "Type": "Animal Individual State", "Region": "Washington", "County": "Lenoir", "FirstIssue": "2015-11-30T00:00:00Z", "Issued": "2015-11-30T00:00:00Z", "Expries": "2020-10-31T00:00:00Z", "Status": "Active", "Latitude": 35.1785, "Longitude": -77.82402 }, "geometry": { "type": "Point", "coordinates": [ -77.824022330999981, 35.17850697700004 ] } },
{ "type": "Feature", "properties": { "FID": 111, "Permit": "AWS310375", "Permittee": "Murphy-Brown LLC", "Facility": "2704 & 2706", "Type": "Swine State COC", "Region": "Wilmington", "County": "Duplin", "FirstIssue": "1997-07-30T00:00:00Z", "Issued": "2014-10-01T00:00:00Z", "Expries": "2019-09-30T00:00:00Z", "Status": "Active", "Latitude": 34.9692, "Longitude": -78.1422 }, "geometry": { "type": "Point", "coordinates": [ -78.142202416999964, 34.969206920000033 ] } },
{ "type": "Feature", "properties": { "FID": 112, "Permit": "AWS830013", "Permittee": "Murphy-Brown LLC", "Facility": "Farm 50793-1", "Type": "Swine State COC", "Region": "Fayetteville", "County": "Scotland", "FirstIssue": "1998-08-31T00:00:00Z", "Issued": "2014-10-01T00:00:00Z", "Expries": "2019-09-30T00:00:00Z", "Status": "Active", "Latitude": 34.697849, "Longitude": -79.486464 }, "geometry": { "type": "Point", "coordinates": [ -79.486466807999989, 34.697855815000025 ] } },
{ "type": "Feature", "properties": { "FID": 113, "Permit": "AWS090049", "Permittee": "Webber Farms Inc", "Facility": "Shadow Glenn & Webber Farm", "Type": "Swine State COC", "Region": "Fayetteville", "County": "Bladen", "FirstIssue": "2003-04-09T00:00:00Z", "Issued": "2014-10-01T00:00:00Z", "Expries": "2019-09-30T00:00:00Z", "Status": "Active", "Latitude": 34.621263, "Longitude": -78.351747 }, "geometry": { "type": "Point", "coordinates": [ -78.351749462999976, 34.621269837000057 ] } },
{ "type": "Feature", "properties": { "FID": 114, "Permit": "AWI540107", "Permittee": "Sutton, Stanley", "Facility": "Stanley Sutton Farms", "Type": "Animal Individual State", "Region": "Washington", "County": "Lenoir", "FirstIssue": "2015-01-15T00:00:00Z", "Issued": "2015-01-15T00:00:00Z", "Expries": "2019-12-31T00:00:00Z", "Status": "Active", "Latitude": 35.244, "Longitude": -77.7572 }, "geometry": { "type": "Point", "coordinates": [ -77.757202313999983, 35.244006993000028 ] } },
{ "type": "Feature", "properties": { "FID": 115, "Permit": "AWS310397", "Permittee": "Murphy-Brown LLC", "Facility": "S-3 / S-4", "Type": "Swine State COC", "Region": "Wilmington", "County": "Duplin", "FirstIssue": "2003-04-09T00:00:00Z", "Issued": "2015-08-14T00:00:00Z", "Expries": "2019-09-30T00:00:00Z", "Status": "Active", "Latitude": 34.741886, "Longitude": -78.100073 }, "geometry": { "type": "Point", "coordinates": [ -78.100075392999941, 34.741892872000051 ] } },
{ "type": "Feature", "properties": { "FID": 116, "Permit": "AWS830015", "Permittee": "Murphy-Brown LLC", "Facility": "7177", "Type": "Swine State COC", "Region": "Fayetteville", "County": "Scotland", "FirstIssue": "1997-09-29T00:00:00Z", "Issued": "2014-10-01T00:00:00Z", "Expries": "2019-09-30T00:00:00Z", "Status": "Active", "Latitude": 34.770465, "Longitude": -79.389701 }, "geometry": { "type": "Point", "coordinates": [ -79.389703782999959, 34.770471835000023 ] } },
{ "type": "Feature", "properties": { "FID": 117, "Permit": "AWS660078", "Permittee": "Wee Winn L L C", "Facility": "Winnaway Farm - Sites 1, 2 & 3", "Type": "Swine State COC", "Region": "Raleigh", "County": "Northampton", "FirstIssue": "1999-01-29T00:00:00Z", "Issued": "2014-10-01T00:00:00Z", "Expries": "2019-09-30T00:00:00Z", "Status": "Active", "Latitude": 36.3306, "Longitude": -77.3583 }, "geometry": { "type": "Point", "coordinates": [ -77.358302247999973, 36.330607241000052 ] } },
{ "type": "Feature", "properties": { "FID": 118, "Permit": "AWS310400", "Permittee": "Murphy-Brown LLC", "Facility": "Farm #20 / 3620", "Type": "Swine State COC", "Region": "Wilmington", "County": "Duplin", "FirstIssue": "1997-09-05T00:00:00Z", "Issued": "2014-10-01T00:00:00Z", "Expries": "2019-09-30T00:00:00Z", "Status": "Active", "Latitude": 35.0953, "Longitude": -78.1378 }, "geometry": { "type": "Point", "coordinates": [ -78.137802421999936, 35.095306948000029 ] } },
{ "type": "Feature", "properties": { "FID": 119, "Permit": "AWI600009", "Permittee": "Westmoreland, Keith", "Facility": "T.M. Westmoreland & Sons", "Type": "Animal Individual State", "Region": "Mooresville", "County": "Mecklenburg", "FirstIssue": "2012-02-21T00:00:00Z", "Issued": "2012-02-21T00:00:00Z", "Expries": "2017-01-31T00:00:00Z", "Status": "Active", "Latitude": 35.4489, "Longitude": -80.8139 }, "geometry": { "type": "Point", "coordinates": [ -80.813903244999949, 35.448906930000078 ] } },
{ "type": "Feature", "properties": { "FID": 120, "Permit": "AWS830016", "Permittee": "Murphy-Brown LLC", "Facility": "7169", "Type": "Swine State COC", "Region": "Fayetteville", "County": "Scotland", "FirstIssue": "1998-10-02T00:00:00Z", "Issued": "2014-10-01T00:00:00Z", "Expries": "2019-09-30T00:00:00Z", "Status": "Active", "Latitude": 34.807564, "Longitude": -79.386775 }, "geometry": { "type": "Point", "coordinates": [ -79.386777783999946, 34.807570843000065 ] } },
{ "type": "Feature", "properties": { "FID": 121, "Permit": "AWS430019", "Permittee": "Weeks Farms Inc", "Facility": "Weeks Farms Inc", "Type": "Swine State COC", "Region": "Fayetteville", "County": "Harnett", "FirstIssue": "1998-08-31T00:00:00Z", "Issued": "2014-10-01T00:00:00Z", "Expries": "2019-09-30T00:00:00Z", "Status": "Active", "Latitude": 35.256416, "Longitude": -78.60824 }, "geometry": { "type": "Point", "coordinates": [ -78.608242571999938, 35.256422967000049 ] } },
{ "type": "Feature", "properties": { "FID": 122, "Permit": "AWS310401", "Permittee": "Murphy-Brown LLC", "Facility": "3112", "Type": "Swine State COC", "Region": "Wilmington", "County": "Duplin", "FirstIssue": "1997-07-28T00:00:00Z", "Issued": "2014-11-06T00:00:00Z", "Expries": "2019-09-30T00:00:00Z", "Status": "Active", "Latitude": 34.933586, "Longitude": -78.030295 }, "geometry": { "type": "Point", "coordinates": [ -78.030297380999968, 34.933592916000066 ] } },
{ "type": "Feature", "properties": { "FID": 123, "Permit": "AWI640005", "Permittee": "Hawkins, Jack", "Facility": "D&M Poultry", "Type": "Animal Individual State", "Region": "Raleigh", "County": "Nash", "FirstIssue": "2009-08-25T00:00:00Z", "Issued": "2009-08-25T00:00:00Z", "Expries": "2014-07-31T00:00:00Z", "Status": "Expired", "Latitude": 36.1514, "Longitude": -77.9564 }, "geometry": { "type": "Point", "coordinates": [ -77.95640242099995, 36.151407182000071 ] } },
{ "type": "Feature", "properties": { "FID": 124, "Permit": "AWS830017", "Permittee": "Murphy-Brown LLC", "Facility": "Farm 7668", "Type": "Swine State COC", "Region": "Fayetteville", "County": "Scotland", "FirstIssue": "1998-10-26T00:00:00Z", "Issued": "2014-10-01T00:00:00Z", "Expries": "2019-09-30T00:00:00Z", "Status": "Active", "Latitude": 34.807225, "Longitude": -79.510195 }, "geometry": { "type": "Point", "coordinates": [ -79.510197820999963, 34.807231838000064 ] } },
{ "type": "Feature", "properties": { "FID": 125, "Permit": "AWS310588", "Permittee": "Wells & Son's Inc", "Facility": "Dekalb Wells Farm", "Type": "Swine State COC", "Region": "Wilmington", "County": "Duplin", "FirstIssue": "1998-12-30T00:00:00Z", "Issued": "2014-10-01T00:00:00Z", "Expries": "2019-09-30T00:00:00Z", "Status": "Active", "Latitude": 34.8267, "Longitude": -78.1208 }, "geometry": { "type": "Point", "coordinates": [ -78.120802402999971, 34.826706890000025 ] } },
{ "type": "Feature", "properties": { "FID": 126, "Permit": "AWS310466", "Permittee": "Murphy-Brown LLC", "Facility": "Sands Farm", "Type": "Swine State COC", "Region": "Wilmington", "County": "Duplin", "FirstIssue": "1999-01-04T00:00:00Z", "Issued": "2014-10-01T00:00:00Z", "Expries": "2019-09-30T00:00:00Z", "Status": "Active", "Latitude": 34.863862, "Longitude": -78.118362 }, "geometry": { "type": "Point", "coordinates": [ -78.118364403999976, 34.863868898000078 ] } },
{ "type": "Feature", "properties": { "FID": 127, "Permit": "AWI640006", "Permittee": "Collie, Sidney", "Facility": "Sidney A. Collie Farm", "Type": "Animal Individual State", "Region": "Raleigh", "County": "Nash", "FirstIssue": "2009-10-05T00:00:00Z", "Issued": "2010-08-11T00:00:00Z", "Expries": "2014-09-30T00:00:00Z", "Status": "Expired", "Latitude": 36.075, "Longitude": -77.9917 }, "geometry": { "type": "Point", "coordinates": [ -77.99170242799994, 36.075007165000045 ] } },
{ "type": "Feature", "properties": { "FID": 128, "Permit": "AWS830019", "Permittee": "Murphy-Brown LLC", "Facility": "Farm 5171", "Type": "Swine State COC", "Region": "Fayetteville", "County": "Scotland", "FirstIssue": "1997-11-14T00:00:00Z", "Issued": "2014-10-01T00:00:00Z", "Expries": "2019-09-30T00:00:00Z", "Status": "Active", "Latitude": 34.656645, "Longitude": -79.444492 }, "geometry": { "type": "Point", "coordinates": [ -79.444494793999979, 34.656651808000049 ] } },
{ "type": "Feature", "properties": { "FID": 129, "Permit": "AWS310223", "Permittee": "Wesbrook Farms LLC", "Facility": "Albertson Farm", "Type": "Swine State COC", "Region": "Wilmington", "County": "Duplin", "FirstIssue": "1997-08-04T00:00:00Z", "Issued": "2014-10-01T00:00:00Z", "Expries": "2019-09-30T00:00:00Z", "Status": "Active", "Latitude": 35.134527, "Longitude": -77.824593 }, "geometry": { "type": "Point", "coordinates": [ -77.824595328999976, 35.134533967000039 ] } },
{ "type": "Feature", "properties": { "FID": 130, "Permit": "AWS310468", "Permittee": "Murphy-Brown LLC", "Facility": "2147", "Type": "Swine State COC", "Region": "Wilmington", "County": "Duplin", "FirstIssue": "1998-06-01T00:00:00Z", "Issued": "2014-10-01T00:00:00Z", "Expries": "2019-09-30T00:00:00Z", "Status": "Active", "Latitude": 34.9875, "Longitude": -77.9097 }, "geometry": { "type": "Point", "coordinates": [ -77.90970234699995, 34.987506932000031 ] } },
{ "type": "Feature", "properties": { "FID": 131, "Permit": "AWI640011", "Permittee": "Reid, Edwin", "Facility": "Edwin Reid Poultry Farm", "Type": "Animal Individual State", "Region": "Raleigh", "County": "Nash", "FirstIssue": "2014-07-11T00:00:00Z", "Issued": "2014-07-11T00:00:00Z", "Expries": null, "Status": "Active", "Latitude": 36.1317, "Longitude": -77.875 }, "geometry": { "type": "Point", "coordinates": [ -77.875002394999967, 36.131707181000024 ] } },
{ "type": "Feature", "properties": { "FID": 132, "Permit": "AWS830021", "Permittee": "Murphy-Brown LLC", "Facility": "Farm 7689", "Type": "Swine State COC", "Region": "Fayetteville", "County": "Scotland", "FirstIssue": "1997-07-28T00:00:00Z", "Issued": "2014-10-01T00:00:00Z", "Expries": "2019-09-30T00:00:00Z", "Status": "Active", "Latitude": 34.936726, "Longitude": -79.471581 }, "geometry": { "type": "Point", "coordinates": [ -79.471583815999963, 34.936732868000036 ] } },
{ "type": "Feature", "properties": { "FID": 133, "Permit": "AWS520016", "Permittee": "White Oak River Farms LLC", "Facility": "White Oak River Farms (Forrest Nursery)", "Type": "Swine State COC", "Region": "Washington", "County": "Jones", "FirstIssue": "2001-01-31T00:00:00Z", "Issued": "2014-10-01T00:00:00Z", "Expries": "2019-09-30T00:00:00Z", "Status": "Active", "Latitude": 34.9181, "Longitude": -77.3708 }, "geometry": { "type": "Point", "coordinates": [ -77.370802179999941, 34.918106935000026 ] } },
{ "type": "Feature", "properties": { "FID": 134, "Permit": "AWS310514", "Permittee": "Murphy-Brown LLC", "Facility": "3501 & 3102", "Type": "Swine State COC", "Region": "Wilmington", "County": "Duplin", "FirstIssue": "1997-07-16T00:00:00Z", "Issued": "2015-09-25T00:00:00Z", "Expries": "2019-09-30T00:00:00Z", "Status": "Active", "Latitude": 34.8031, "Longitude": -78.1731 }, "geometry": { "type": "Point", "coordinates": [ -78.173102417999985, 34.803106883000055 ] } },
{ "type": "Feature", "properties": { "FID": 135, "Permit": "AWI640013", "Permittee": "Sullivan, William", "Facility": "Production Enterprise Inc. Farm", "Type": "Animal Individual State", "Region": "Raleigh", "County": "Nash", "FirstIssue": "2009-05-18T00:00:00Z", "Issued": "2015-08-19T00:00:00Z", "Expries": "2020-07-31T00:00:00Z", "Status": "Active", "Latitude": 36.0728, "Longitude": -78.0222 }, "geometry": { "type": "Point", "coordinates": [ -78.022202436999976, 36.07280716300005 ] } },
{ "type": "Feature", "properties": { "FID": 136, "Permit": "AWS830022", "Permittee": "Murphy-Brown LLC", "Facility": "Farm 7688", "Type": "Swine State COC", "Region": "Fayetteville", "County": "Scotland", "FirstIssue": "1997-07-28T00:00:00Z", "Issued": "2014-10-01T00:00:00Z", "Expries": "2019-09-30T00:00:00Z", "Status": "Active", "Latitude": 34.928926, "Longitude": -79.473174 }, "geometry": { "type": "Point", "coordinates": [ -79.473176815999977, 34.928932866000025 ] } },
{ "type": "Feature", "properties": { "FID": 137, "Permit": "AWS310563", "Permittee": "Murphy-Brown LLC", "Facility": "Batchelor Sow Farm", "Type": "Swine State COC", "Region": "Wilmington", "County": "Duplin", "FirstIssue": "1997-08-25T00:00:00Z", "Issued": "2014-10-01T00:00:00Z", "Expries": "2019-09-30T00:00:00Z", "Status": "Active", "Latitude": 35.0139, "Longitude": -77.9183 }, "geometry": { "type": "Point", "coordinates": [ -77.918302350999966, 35.013906938000048 ] } },
{ "type": "Feature", "properties": { "FID": 138, "Permit": "AWS520046", "Permittee": "White Oak River Farms LLC", "Facility": "White Oak River Farms - Hoffman Sow Farm", "Type": "Swine State COC", "Region": "Washington", "County": "Jones", "FirstIssue": "1998-08-18T00:00:00Z", "Issued": "2014-10-01T00:00:00Z", "Expries": "2019-09-30T00:00:00Z", "Status": "Active", "Latitude": 34.925958, "Longitude": -77.372446 }, "geometry": { "type": "Point", "coordinates": [ -77.372448180999982, 34.92596493700006 ] } },
{ "type": "Feature", "properties": { "FID": 139, "Permit": "AWI640018", "Permittee": "Packer, Jerry", "Facility": "Armstrong Poultry Farm", "Type": "Animal Individual State", "Region": "Raleigh", "County": "Nash", "FirstIssue": "2009-05-18T00:00:00Z", "Issued": "2014-12-15T00:00:00Z", "Expries": "2019-11-30T00:00:00Z", "Status": "Active", "Latitude": 36.1092, "Longitude": -77.9067 }, "geometry": { "type": "Point", "coordinates": [ -77.906702403999986, 36.109207175000051 ] } },
{ "type": "Feature", "properties": { "FID": 140, "Permit": "AWS830023", "Permittee": "Murphy-Brown LLC", "Facility": "Farm 7687", "Type": "Swine State COC", "Region": "Fayetteville", "County": "Scotland", "FirstIssue": "1997-07-30T00:00:00Z", "Issued": "2014-10-01T00:00:00Z", "Expries": "2019-09-30T00:00:00Z", "Status": "Active", "Latitude": 34.932178, "Longitude": -79.490894 }, "geometry": { "type": "Point", "coordinates": [ -79.490896821999968, 34.932184866000057 ] } },
{ "type": "Feature", "properties": { "FID": 141, "Permit": "AWS310567", "Permittee": "Murphy-Brown LLC", "Facility": "2149", "Type": "Swine State COC", "Region": "Wilmington", "County": "Duplin", "FirstIssue": "1998-06-05T00:00:00Z", "Issued": "2014-10-01T00:00:00Z", "Expries": "2019-09-30T00:00:00Z", "Status": "Active", "Latitude": 34.9525, "Longitude": -78.1367 }, "geometry": { "type": "Point", "coordinates": [ -78.136702413999956, 34.952506917000051 ] } },
{ "type": "Feature", "properties": { "FID": 142, "Permit": "AWC040036", "Permittee": "White Rock Farms LLC", "Facility": "White Rock Farms Dairy", "Type": "Cattle State COC", "Region": "Fayetteville", "County": "Anson", "FirstIssue": "2013-01-31T00:00:00Z", "Issued": "2014-10-01T00:00:00Z", "Expries": "2019-09-30T00:00:00Z", "Status": "Active", "Latitude": 34.8156, "Longitude": -80.2464 }, "geometry": { "type": "Point", "coordinates": [ -80.24640304199994, 34.815606814000034 ] } },
{ "type": "Feature", "properties": { "FID": 143, "Permit": "AWI640020", "Permittee": "Boone, G", "Facility": "Warren Boone Farm", "Type": "Animal Individual State", "Region": "Raleigh", "County": "Nash", "FirstIssue": "2011-03-28T00:00:00Z", "Issued": "2011-03-28T00:00:00Z", "Expries": "2016-02-28T00:00:00Z", "Status": "Active", "Latitude": 35.9194, "Longitude": -78.1675 }, "geometry": { "type": "Point", "coordinates": [ -78.167502472999956, 35.919407125000077 ] } },
{ "type": "Feature", "properties": { "FID": 144, "Permit": "AWS830028", "Permittee": "Murphy-Brown LLC", "Facility": "7097 - Gibson Farm", "Type": "Swine State COC", "Region": "Fayetteville", "County": "Scotland", "FirstIssue": "1999-04-30T00:00:00Z", "Issued": "2014-10-01T00:00:00Z", "Expries": "2019-09-30T00:00:00Z", "Status": "Active", "Latitude": 34.769574, "Longitude": -79.562001 }, "geometry": { "type": "Point", "coordinates": [ -79.562003834999985, 34.769580828000073 ] } },
{ "type": "Feature", "properties": { "FID": 145, "Permit": "AWS310613", "Permittee": "Murphy-Brown LLC", "Facility": "Volunteer Isolation/Finishing Farm", "Type": "Swine State COC", "Region": "Wilmington", "County": "Duplin", "FirstIssue": "2005-11-04T00:00:00Z", "Issued": "2014-10-01T00:00:00Z", "Expries": "2019-09-30T00:00:00Z", "Status": "Active", "Latitude": 35.043932, "Longitude": -77.851556 }, "geometry": { "type": "Point", "coordinates": [ -77.851558331999968, 35.043938947000072 ] } },
{ "type": "Feature", "properties": { "FID": 146, "Permit": "AWS040033", "Permittee": "White Rock Farms LLC", "Facility": "Twin Oaks Farm", "Type": "Swine State COC", "Region": "Fayetteville", "County": "Anson", "FirstIssue": "1997-07-25T00:00:00Z", "Issued": "2014-10-01T00:00:00Z", "Expries": "2019-09-30T00:00:00Z", "Status": "Active", "Latitude": 34.815238, "Longitude": -80.25553 }, "geometry": { "type": "Point", "coordinates": [ -80.255533044999936, 34.815244814000039 ] } },
{ "type": "Feature", "properties": { "FID": 147, "Permit": "AWS830035", "Permittee": "Murphy-Brown LLC", "Facility": "Farm 5070", "Type": "Swine State COC", "Region": "Fayetteville", "County": "Scotland", "FirstIssue": "1997-08-26T00:00:00Z", "Issued": "2014-10-01T00:00:00Z", "Expries": "2019-09-30T00:00:00Z", "Status": "Active", "Latitude": 34.763285, "Longitude": -79.349904 }, "geometry": { "type": "Point", "coordinates": [ -79.349906770999951, 34.763291834000029 ] } },
{ "type": "Feature", "properties": { "FID": 148, "Permit": "AWI640039", "Permittee": "Batchelor, Edwin", "Facility": "Hill Farms (Joyner)", "Type": "Animal Individual State", "Region": "Raleigh", "County": "Nash", "FirstIssue": "2014-12-12T00:00:00Z", "Issued": "2014-12-12T00:00:00Z", "Expries": "2019-11-30T00:00:00Z", "Status": "Active", "Latitude": 35.9022, "Longitude": -77.9617 }, "geometry": { "type": "Point", "coordinates": [ -77.961702409999987, 35.902207129000033 ] } },
{ "type": "Feature", "properties": { "FID": 149, "Permit": "AWS310678", "Permittee": "Murphy-Brown LLC", "Facility": "Farm 90", "Type": "Swine State COC", "Region": "Wilmington", "County": "Duplin", "FirstIssue": "1997-07-28T00:00:00Z", "Issued": "2014-10-01T00:00:00Z", "Expries": "2019-09-30T00:00:00Z", "Status": "Active", "Latitude": 34.9361, "Longitude": -78.1274 }, "geometry": { "type": "Point", "coordinates": [ -78.127402410999935, 34.93610691400005 ] } },
{ "type": "Feature", "properties": { "FID": 150, "Permit": "AWS040034", "Permittee": "White Rock Farms LLC", "Facility": "White Rock Farms", "Type": "Swine State COC", "Region": "Fayetteville", "County": "Anson", "FirstIssue": "1997-06-23T00:00:00Z", "Issued": "2014-10-01T00:00:00Z", "Expries": "2019-09-30T00:00:00Z", "Status": "Active", "Latitude": 34.822255, "Longitude": -80.295013 }, "geometry": { "type": "Point", "coordinates": [ -80.295016056999941, 34.822261814000058 ] } },
{ "type": "Feature", "properties": { "FID": 151, "Permit": "AWS890001", "Permittee": "Murphy-Brown LLC", "Facility": "New Colony Sow Farm", "Type": "Swine State COC", "Region": "Washington", "County": "Tyrrell", "FirstIssue": "2003-08-25T00:00:00Z", "Issued": "2015-12-18T00:00:00Z", "Expries": "2019-09-30T00:00:00Z", "Status": "Active", "Latitude": 35.827, "Longitude": -76.3217 }, "geometry": { "type": "Point", "coordinates": [ -76.321701903999951, 35.82700716800008 ] } },
{ "type": "Feature", "properties": { "FID": 152, "Permit": "AWI640047", "Permittee": "Boone, Brenda", "Facility": "Bissette Farm", "Type": "Animal Individual State", "Region": "Raleigh", "County": "Nash", "FirstIssue": "2014-08-28T00:00:00Z", "Issued": "2014-08-28T00:00:00Z", "Expries": "2019-07-31T00:00:00Z", "Status": "Active", "Latitude": 35.9022, "Longitude": -78.0333 }, "geometry": { "type": "Point", "coordinates": [ -78.033302430999981, 35.902207126000064 ] } },
{ "type": "Feature", "properties": { "FID": 153, "Permit": "AWS310740", "Permittee": "Murphy-Brown LLC", "Facility": "Farm 2029", "Type": "Swine State COC", "Region": "Wilmington", "County": "Duplin", "FirstIssue": "1998-08-18T00:00:00Z", "Issued": "2014-10-01T00:00:00Z", "Expries": "2019-09-30T00:00:00Z", "Status": "Active", "Latitude": 35.0425, "Longitude": -78.0333 }, "geometry": { "type": "Point", "coordinates": [ -78.033302386999935, 35.042506940000067 ] } },
{ "type": "Feature", "properties": { "FID": 154, "Permit": "AWS930010", "Permittee": "Murphy-Brown LLC", "Facility": "Farm 7360", "Type": "Swine State COC", "Region": "Raleigh", "County": "Warren", "FirstIssue": "1998-05-26T00:00:00Z", "Issued": "2014-10-01T00:00:00Z", "Expries": "2019-09-30T00:00:00Z", "Status": "Active", "Latitude": 36.4811, "Longitude": -78.0839 }, "geometry": { "type": "Point", "coordinates": [ -78.08390247799997, 36.481107248000058 ] } },
{ "type": "Feature", "properties": { "FID": 155, "Permit": "AWS510041", "Permittee": "Whitley Stephenson Spring Meadow Farm Inc", "Facility": "Spring Meadow Farm", "Type": "Swine State COC", "Region": "Raleigh", "County": "Johnston", "FirstIssue": "1998-07-20T00:00:00Z", "Issued": "2014-10-01T00:00:00Z", "Expries": "2019-09-30T00:00:00Z", "Status": "Active", "Latitude": 35.5439, "Longitude": -78.3375 }, "geometry": { "type": "Point", "coordinates": [ -78.337502504999975, 35.543907039000032 ] } },
{ "type": "Feature", "properties": { "FID": 156, "Permit": "AWI640053", "Permittee": "Strickland, A", "Facility": "Valle Verde Inc", "Type": "Animal Individual State", "Region": "Raleigh", "County": "Nash", "FirstIssue": "2010-06-02T00:00:00Z", "Issued": "2010-06-02T00:00:00Z", "Expries": "2015-05-31T00:00:00Z", "Status": "Expired", "Latitude": 36.0456, "Longitude": -78.0111 }, "geometry": { "type": "Point", "coordinates": [ -78.011102431999973, 36.045607158000053 ] } },
{ "type": "Feature", "properties": { "FID": 157, "Permit": "AWS510046", "Permittee": "Whitley Stephenson Spring Meadow Farm Inc", "Facility": "Sandy Ridge Pork", "Type": "Swine State COC", "Region": "Raleigh", "County": "Johnston", "FirstIssue": "1997-09-08T00:00:00Z", "Issued": "2014-10-01T00:00:00Z", "Expries": "2019-09-30T00:00:00Z", "Status": "Active", "Latitude": 35.3533, "Longitude": -78.3422 }, "geometry": { "type": "Point", "coordinates": [ -78.34220249699996, 35.353306997000061 ] } },
{ "type": "Feature", "properties": { "FID": 158, "Permit": "AWS330006", "Permittee": "Murphy-Brown LLC", "Facility": "Wilson Multiplier", "Type": "Swine State COC", "Region": "Raleigh", "County": "Edgecombe", "FirstIssue": "2003-04-09T00:00:00Z", "Issued": "2014-10-01T00:00:00Z", "Expries": "2019-09-30T00:00:00Z", "Status": "Active", "Latitude": 35.8828, "Longitude": -77.4025 }, "geometry": { "type": "Point", "coordinates": [ -77.402502237999954, 35.882807144000026 ] } },
{ "type": "Feature", "properties": { "FID": 159, "Permit": "AWS930011", "Permittee": "Murphy-Brown LLC", "Facility": "Farm 61", "Type": "Swine State COC", "Region": "Raleigh", "County": "Warren", "FirstIssue": "1998-05-26T00:00:00Z", "Issued": "2014-10-01T00:00:00Z", "Expries": "2019-09-30T00:00:00Z", "Status": "Active", "Latitude": 36.357961, "Longitude": -77.991965 }, "geometry": { "type": "Point", "coordinates": [ -77.991967442999965, 36.357968225000036 ] } },
{ "type": "Feature", "properties": { "FID": 160, "Permit": "AWI640074", "Permittee": "Harrison, Willie", "Facility": "Harrison Pork Productions, Inc.", "Type": "Animal Individual State", "Region": "Raleigh", "County": "Nash", "FirstIssue": "1997-05-22T00:00:00Z", "Issued": "2012-12-21T00:00:00Z", "Expries": "2018-01-31T00:00:00Z", "Status": "Active", "Latitude": 36.1544, "Longitude": -78.0283 }, "geometry": { "type": "Point", "coordinates": [ -78.028302442999973, 36.154407180000078 ] } },
{ "type": "Feature", "properties": { "FID": 161, "Permit": "AWS540046", "Permittee": "Wiggins Farms Inc", "Facility": "Wiggins Farm, Inc.", "Type": "Swine State COC", "Region": "Washington", "County": "Lenoir", "FirstIssue": "1998-08-24T00:00:00Z", "Issued": "2014-10-01T00:00:00Z", "Expries": "2019-09-30T00:00:00Z", "Status": "Active", "Latitude": 35.2836, "Longitude": -77.8228 }, "geometry": { "type": "Point", "coordinates": [ -77.822802335999938, 35.283607 ] } },
{ "type": "Feature", "properties": { "FID": 162, "Permit": "AWS400148", "Permittee": "Murphy-Brown LLC", "Facility": "Halfmoon Pigs", "Type": "Swine State COC", "Region": "Washington", "County": "Greene", "FirstIssue": "2000-01-28T00:00:00Z", "Issued": "2014-10-01T00:00:00Z", "Expries": "2019-09-30T00:00:00Z", "Status": "Active", "Latitude": 35.4867, "Longitude": -77.5467 }, "geometry": { "type": "Point", "coordinates": [ -77.54670226199994, 35.486707053000032 ] } },
{ "type": "Feature", "properties": { "FID": 163, "Permit": "AWI640076", "Permittee": "Boone, Louis", "Facility": "L.B. Boone Finishing Operation", "Type": "Animal Individual State", "Region": "Raleigh", "County": "Nash", "FirstIssue": "2014-08-28T00:00:00Z", "Issued": "2014-08-28T00:00:00Z", "Expries": "2019-07-31T00:00:00Z", "Status": "Active", "Latitude": 35.8769, "Longitude": -77.9689 }, "geometry": { "type": "Point", "coordinates": [ -77.968902409999941, 35.876907123000024 ] } },
{ "type": "Feature", "properties": { "FID": 164, "Permit": "AWI580045", "Permittee": "N C Department Of Agriculture & Consurmer Services", "Facility": "Senator Bob Martin Eastern Agricultural Center", "Type": "Animal Individual State", "Region": "Washington", "County": "Martin", "FirstIssue": "2005-08-31T00:00:00Z", "Issued": "2015-01-29T00:00:00Z", "Expries": "2020-02-28T00:00:00Z", "Status": "Active", "Latitude": 35.823312, "Longitude": -77.115065 }, "geometry": { "type": "Point", "coordinates": [ -77.115067146999934, 35.82331914100007 ] } },
{ "type": "Feature", "properties": { "FID": 165, "Permit": "AWS420010", "Permittee": "Murphy-Brown LLC", "Facility": "Farm 8152", "Type": "Swine State COC", "Region": "Raleigh", "County": "Halifax", "FirstIssue": "1998-06-05T00:00:00Z", "Issued": "2014-10-01T00:00:00Z", "Expries": "2019-09-30T00:00:00Z", "Status": "Active", "Latitude": 36.074517, "Longitude": -77.504862 }, "geometry": { "type": "Point", "coordinates": [ -77.504864278999946, 36.074524181000072 ] } },
{ "type": "Feature", "properties": { "FID": 166, "Permit": "AWS660009", "Permittee": "Williams Farms of NC Inc", "Facility": "Williams Farms", "Type": "Swine State COC", "Region": "Raleigh", "County": "Northampton", "FirstIssue": "1998-11-23T00:00:00Z", "Issued": "2004-10-01T00:00:00Z", "Expries": "2009-10-01T00:00:00Z", "Status": "Expired", "Latitude": 36.5278, "Longitude": -77.6431 }, "geometry": { "type": "Point", "coordinates": [ -77.643102345999978, 36.527807273000064 ] } },
{ "type": "Feature", "properties": { "FID": 167, "Permit": "AWC440064", "Permittee": "Wnc Regional Livestock Center LLC", "Facility": "WNC Regional Livestock Center LLC", "Type": "Cattle State COC", "Region": "Asheville", "County": "Haywood", "FirstIssue": "2011-03-25T00:00:00Z", "Issued": "2014-10-01T00:00:00Z", "Expries": "2019-09-30T00:00:00Z", "Status": "Active", "Latitude": 35.5528, "Longitude": -82.8333 }, "geometry": { "type": "Point", "coordinates": [ -82.833303849999936, 35.552806875000044 ] } },
{ "type": "Feature", "properties": { "FID": 168, "Permit": "AWS420011", "Permittee": "Murphy-Brown LLC", "Facility": "Farm 8151", "Type": "Swine State COC", "Region": "Raleigh", "County": "Halifax", "FirstIssue": "1998-06-01T00:00:00Z", "Issued": "2014-10-01T00:00:00Z", "Expries": "2019-09-30T00:00:00Z", "Status": "Active", "Latitude": 36.0808, "Longitude": -77.4953 }, "geometry": { "type": "Point", "coordinates": [ -77.495302276999951, 36.080807183000047 ] } },
{ "type": "Feature", "properties": { "FID": 169, "Permit": "AWS190004", "Permittee": "N G Purvis Farms Inc", "Facility": "Circle P", "Type": "Swine State COC", "Region": "Raleigh", "County": "Chatham", "FirstIssue": "1999-08-09T00:00:00Z", "Issued": "2014-10-01T00:00:00Z", "Expries": "2019-09-30T00:00:00Z", "Status": "Active", "Latitude": 0.0, "Longitude": 0.0 }, "geometry": null },
{ "type": "Feature", "properties": { "FID": 170, "Permit": "AWI690001", "Permittee": "Dunn, Walter", "Facility": "Dunn's Hog Farm", "Type": "Animal Individual State", "Region": "Washington", "County": "Pamlico", "FirstIssue": "2013-11-19T00:00:00Z", "Issued": "2013-11-19T00:00:00Z", "Expries": null, "Status": "Active", "Latitude": 35.1698, "Longitude": -76.96697 }, "geometry": { "type": "Point", "coordinates": [ -76.96697206999994, 35.169807003000074 ] } },
{ "type": "Feature", "properties": { "FID": 171, "Permit": "AWC790006", "Permittee": "Wright Dairy of Rockingham County Inc", "Facility": "Wright Dairy of Rockingham County, Inc.", "Type": "Cattle State COC", "Region": "Winston-Salem", "County": "Rockingham", "FirstIssue": "2000-02-25T00:00:00Z", "Issued": "2014-10-01T00:00:00Z", "Expries": "2019-09-30T00:00:00Z", "Status": "Active", "Latitude": 36.295, "Longitude": -79.7708 }, "geometry": { "type": "Point", "coordinates": [ -79.770802978999939, 36.295007147000035 ] } },
{ "type": "Feature", "properties": { "FID": 172, "Permit": "AWS620006", "Permittee": "N G Purvis Farms Inc", "Facility": "Little River Farm", "Type": "Swine State COC", "Region": "Fayetteville", "County": "Montgomery", "FirstIssue": "2000-07-10T00:00:00Z", "Issued": "2014-10-01T00:00:00Z", "Expries": "2019-09-30T00:00:00Z", "Status": "Active", "Latitude": 35.219273, "Longitude": -79.920948 }, "geometry": { "type": "Point", "coordinates": [ -79.920950965999964, 35.219279913000037 ] } },
{ "type": "Feature", "properties": { "FID": 173, "Permit": "AWS420023", "Permittee": "Murphy-Brown LLC", "Facility": "Farm 63", "Type": "Swine State COC", "Region": "Raleigh", "County": "Halifax", "FirstIssue": "1998-08-24T00:00:00Z", "Issued": "2014-10-01T00:00:00Z", "Expries": "2019-09-30T00:00:00Z", "Status": "Active", "Latitude": 36.225807, "Longitude": -77.49977 }, "geometry": { "type": "Point", "coordinates": [ -77.499772285999939, 36.225814214000025 ] } },
{ "type": "Feature", "properties": { "FID": 174, "Permit": "AWI690002", "Permittee": "Spruill, David", "Facility": "Spruill Pig Paradise", "Type": "Animal Individual State", "Region": "Washington", "County": "Pamlico", "FirstIssue": "2013-03-26T00:00:00Z", "Issued": "2013-03-26T00:00:00Z", "Expries": null, "Status": "Active", "Latitude": 35.097136, "Longitude": -76.736725 }, "geometry": { "type": "Point", "coordinates": [ -76.736726995999959, 35.09714299500007 ] } },
{ "type": "Feature", "properties": { "FID": 175, "Permit": "AWS960016", "Permittee": "Yelverton Farms LTD", "Facility": "Yelverton Farms Ltd", "Type": "Swine State COC", "Region": "Washington", "County": "Wayne", "FirstIssue": "2003-04-09T00:00:00Z", "Issued": "2014-10-01T00:00:00Z", "Expries": "2019-09-30T00:00:00Z", "Status": "Active", "Latitude": 35.5067, "Longitude": -77.8633 }, "geometry": { "type": "Point", "coordinates": [ -77.863302358999988, 35.506707047000077 ] } },
{ "type": "Feature", "properties": { "FID": 176, "Permit": "AWS620012", "Permittee": "N G Purvis Farms Inc", "Facility": "Naked Creek Farm", "Type": "Swine State COC", "Region": "Fayetteville", "County": "Montgomery", "FirstIssue": "2000-04-18T00:00:00Z", "Issued": "2014-11-18T00:00:00Z", "Expries": "2019-09-30T00:00:00Z", "Status": "Active", "Latitude": 35.200845, "Longitude": -79.70309 }, "geometry": { "type": "Point", "coordinates": [ -79.703092898999955, 35.20085191700008 ] } },
{ "type": "Feature", "properties": { "FID": 177, "Permit": "AWC010002", "Permittee": "Jones, Joe", "Facility": "Piedmont L/S Co Farm", "Type": "Cattle State COC", "Region": "Winston-Salem", "County": "Alamance", "FirstIssue": "2009-10-01T00:00:00Z", "Issued": "2014-10-01T00:00:00Z", "Expries": "2019-09-30T00:00:00Z", "Status": "Active", "Latitude": 36.1742, "Longitude": -79.4994 }, "geometry": { "type": "Point", "coordinates": [ -79.499402890999988, 36.174207132000049 ] } },
{ "type": "Feature", "properties": { "FID": 178, "Permit": "AWS420024", "Permittee": "Murphy-Brown LLC", "Facility": "Farm 62", "Type": "Swine State COC", "Region": "Raleigh", "County": "Halifax", "FirstIssue": "1998-05-26T00:00:00Z", "Issued": "2014-10-01T00:00:00Z", "Expries": "2019-09-30T00:00:00Z", "Status": "Active", "Latitude": 36.1886, "Longitude": -77.5833 }, "geometry": { "type": "Point", "coordinates": [ -77.583302308999976, 36.188607203000061 ] } },
{ "type": "Feature", "properties": { "FID": 179, "Permit": "AWS630001", "Permittee": "N G Purvis Farms Inc", "Facility": "Wet Creek Farm", "Type": "Swine State COC", "Region": "Fayetteville", "County": "Moore", "FirstIssue": "1999-06-17T00:00:00Z", "Issued": "2014-10-01T00:00:00Z", "Expries": "2019-09-30T00:00:00Z", "Status": "Active", "Latitude": 35.324344, "Longitude": -79.635713 }, "geometry": { "type": "Point", "coordinates": [ -79.635715885999957, 35.324350946000038 ] } },
{ "type": "Feature", "properties": { "FID": 180, "Permit": "AWI700001", "Permittee": "Meads, William", "Facility": "Weeksville Farm", "Type": "Animal Individual State", "Region": "Washington", "County": "Pasquotank", "FirstIssue": "2009-09-08T00:00:00Z", "Issued": "2014-12-12T00:00:00Z", "Expries": "2019-11-30T00:00:00Z", "Status": "Active", "Latitude": 36.1919, "Longitude": -76.1964 }, "geometry": { "type": "Point", "coordinates": [ -76.196401883999954, 36.191907251000032 ] } },
{ "type": "Feature", "properties": { "FID": 181, "Permit": "AWC010006", "Permittee": "Covington, William", "Facility": "Covington Dairy Farm Inc", "Type": "Cattle State COC", "Region": "Winston-Salem", "County": "Alamance", "FirstIssue": "1999-12-13T00:00:00Z", "Issued": "2014-10-01T00:00:00Z", "Expries": "2019-09-30T00:00:00Z", "Status": "Active", "Latitude": 36.0442, "Longitude": -79.3261 }, "geometry": { "type": "Point", "coordinates": [ -79.326102830999957, 36.044207110000059 ] } },
{ "type": "Feature", "properties": { "FID": 182, "Permit": "AWS430007", "Permittee": "Murphy-Brown LLC", "Facility": "S-6 & Buffalo Ridge Farm", "Type": "Swine State COC", "Region": "Fayetteville", "County": "Harnett", "FirstIssue": "2003-04-09T00:00:00Z", "Issued": "2014-10-01T00:00:00Z", "Expries": "2019-09-30T00:00:00Z", "Status": "Active", "Latitude": 35.209808, "Longitude": -79.129535 }, "geometry": { "type": "Point", "coordinates": [ -79.129537726999956, 35.209814939000069 ] } },
{ "type": "Feature", "properties": { "FID": 183, "Permit": "AWS630003", "Permittee": "N G Purvis Farms Inc", "Facility": "Dixie Farms", "Type": "Swine State COC", "Region": "Fayetteville", "County": "Moore", "FirstIssue": "1999-06-25T00:00:00Z", "Issued": "2014-10-01T00:00:00Z", "Expries": "2019-09-30T00:00:00Z", "Status": "Active", "Latitude": 35.451186, "Longitude": -79.475536 }, "geometry": { "type": "Point", "coordinates": [ -79.475538843999971, 35.451192979000041 ] } },
{ "type": "Feature", "properties": { "FID": 184, "Permit": "AWI720015", "Permittee": "Copeland, Willard", "Facility": "Williard Copeland", "Type": "Animal Individual State", "Region": "Washington", "County": "Perquimans", "FirstIssue": "2014-08-28T00:00:00Z", "Issued": "2014-08-28T00:00:00Z", "Expries": "2019-07-31T00:00:00Z", "Status": "Active", "Latitude": 36.2525, "Longitude": -76.5497 }, "geometry": { "type": "Point", "coordinates": [ -76.549701995999953, 36.252507252000044 ] } },
{ "type": "Feature", "properties": { "FID": 185, "Permit": "AWC010012", "Permittee": "Lindley, W", "Facility": "Lindley Dairy Inc. Farm", "Type": "Cattle State COC", "Region": "Winston-Salem", "County": "Alamance", "FirstIssue": "2000-03-11T00:00:00Z", "Issued": "2014-10-01T00:00:00Z", "Expries": "2019-09-30T00:00:00Z", "Status": "Active", "Latitude": 35.8997, "Longitude": -79.3306 }, "geometry": { "type": "Point", "coordinates": [ -79.330602824999971, 35.899707080000042 ] } },
{ "type": "Feature", "properties": { "FID": 186, "Permit": "AWS460006", "Permittee": "Murphy-Brown LLC", "Facility": "Farm 8134", "Type": "Swine State COC", "Region": "Washington", "County": "Hertford", "FirstIssue": "1997-10-13T00:00:00Z", "Issued": "2014-10-01T00:00:00Z", "Expries": "2019-09-30T00:00:00Z", "Status": "Active", "Latitude": 36.359873, "Longitude": -77.073765 }, "geometry": { "type": "Point", "coordinates": [ -77.073767161999967, 36.359880257000043 ] } },
{ "type": "Feature", "properties": { "FID": 187, "Permit": "AWS630006", "Permittee": "N G Purvis Farms Inc", "Facility": "Holly Ridge Farm", "Type": "Swine State COC", "Region": "Fayetteville", "County": "Moore", "FirstIssue": "1999-02-19T00:00:00Z", "Issued": "2014-10-01T00:00:00Z", "Expries": "2019-09-30T00:00:00Z", "Status": "Active", "Latitude": 35.317805, "Longitude": -79.625661 }, "geometry": { "type": "Point", "coordinates": [ -79.625663881999969, 35.317811945000074 ] } },
{ "type": "Feature", "properties": { "FID": 188, "Permit": "AWI720027", "Permittee": "Godfrey, Earl", "Facility": "Sunray Farm", "Type": "Animal Individual State", "Region": "Washington", "County": "Perquimans", "FirstIssue": "2014-08-28T00:00:00Z", "Issued": "2014-08-28T00:00:00Z", "Expries": "2019-07-31T00:00:00Z", "Status": "Active", "Latitude": 36.1158, "Longitude": -76.2408 }, "geometry": { "type": "Point", "coordinates": [ -76.240801893999958, 36.115807233000055 ] } },
{ "type": "Feature", "properties": { "FID": 189, "Permit": "AWS460007", "Permittee": "Murphy-Brown LLC", "Facility": "Farm 40", "Type": "Swine State COC", "Region": "Washington", "County": "Hertford", "FirstIssue": "1997-08-25T00:00:00Z", "Issued": "2014-10-01T00:00:00Z", "Expries": "2019-09-30T00:00:00Z", "Status": "Active", "Latitude": 36.289694, "Longitude": -76.897024 }, "geometry": { "type": "Point", "coordinates": [ -76.897026103999963, 36.289701248000028 ] } },
{ "type": "Feature", "properties": { "FID": 190, "Permit": "AWS630007", "Permittee": "N G Purvis Farms Inc", "Facility": "Deerfield Farm", "Type": "Swine State COC", "Region": "Fayetteville", "County": "Moore", "FirstIssue": "1999-06-25T00:00:00Z", "Issued": "2014-10-01T00:00:00Z", "Expries": "2019-09-30T00:00:00Z", "Status": "Active", "Latitude": 35.321075, "Longitude": -79.640622 }, "geometry": { "type": "Point", "coordinates": [ -79.640624886999944, 35.32108194500006 ] } },
{ "type": "Feature", "properties": { "FID": 191, "Permit": "AWC010028", "Permittee": "Williard, Albert", "Facility": "A.D. and Carlton Williard", "Type": "Cattle State COC", "Region": "Winston-Salem", "County": "Alamance", "FirstIssue": "2000-08-08T00:00:00Z", "Issued": "2014-10-01T00:00:00Z", "Expries": "2019-09-30T00:00:00Z", "Status": "Active", "Latitude": 35.8803, "Longitude": -79.3456 }, "geometry": { "type": "Point", "coordinates": [ -79.345602827999983, 35.880307075000076 ] } },
{ "type": "Feature", "properties": { "FID": 192, "Permit": "AWI730001", "Permittee": "Allen, Terry", "Facility": "Allen's Farm Inc.", "Type": "Animal Individual State", "Region": "Raleigh", "County": "Person", "FirstIssue": "2009-10-06T00:00:00Z", "Issued": "2009-10-06T00:00:00Z", "Expries": "2014-09-30T00:00:00Z", "Status": "Expired", "Latitude": 36.3183, "Longitude": -79.0622 }, "geometry": { "type": "Point", "coordinates": [ -79.062202765999984, 36.318307178000055 ] } },
{ "type": "Feature", "properties": { "FID": 193, "Permit": "AWS460009", "Permittee": "Murphy-Brown LLC", "Facility": "Farm 31", "Type": "Swine State COC", "Region": "Washington", "County": "Hertford", "FirstIssue": "1997-06-25T00:00:00Z", "Issued": "2015-11-20T00:00:00Z", "Expries": "2019-09-30T00:00:00Z", "Status": "Active", "Latitude": 36.305346, "Longitude": -77.149872 }, "geometry": { "type": "Point", "coordinates": [ -77.149874182999952, 36.30535324300007 ] } },
{ "type": "Feature", "properties": { "FID": 194, "Permit": "AWS630008", "Permittee": "N G Purvis Farms Inc", "Facility": "Indian Hills Farm", "Type": "Swine State COC", "Region": "Fayetteville", "County": "Moore", "FirstIssue": "1999-06-17T00:00:00Z", "Issued": "2014-10-01T00:00:00Z", "Expries": "2019-09-30T00:00:00Z", "Status": "Active", "Latitude": 35.325533, "Longitude": -79.645658 }, "geometry": { "type": "Point", "coordinates": [ -79.645660888999942, 35.325539946000049 ] } },
{ "type": "Feature", "properties": { "FID": 195, "Permit": "AWC010036", "Permittee": "Johnson, Joseph", "Facility": "Fogleman Dairy", "Type": "Cattle State COC", "Region": "Winston-Salem", "County": "Alamance", "FirstIssue": "2007-09-28T00:00:00Z", "Issued": "2014-10-01T00:00:00Z", "Expries": "2019-09-30T00:00:00Z", "Status": "Active", "Latitude": 35.8483, "Longitude": -79.4597 }, "geometry": { "type": "Point", "coordinates": [ -79.459702860999982, 35.848307064000039 ] } },
{ "type": "Feature", "properties": { "FID": 196, "Permit": "AWI730009", "Permittee": "Poindexter, Franklin", "Facility": "Poindexter Farms", "Type": "Animal Individual State", "Region": "Raleigh", "County": "Person", "FirstIssue": "2009-12-18T00:00:00Z", "Issued": "2009-12-18T00:00:00Z", "Expries": "2014-11-30T00:00:00Z", "Status": "Expired", "Latitude": 36.3233, "Longitude": -79.0483 }, "geometry": { "type": "Point", "coordinates": [ -79.048302761999935, 36.323307180000029 ] } },
{ "type": "Feature", "properties": { "FID": 197, "Permit": "AWS460011", "Permittee": "Murphy-Brown LLC", "Facility": "Farm 8525 & 8526", "Type": "Swine State COC", "Region": "Washington", "County": "Hertford", "FirstIssue": "1997-05-27T00:00:00Z", "Issued": "2014-10-01T00:00:00Z", "Expries": "2019-09-30T00:00:00Z", "Status": "Active", "Latitude": 36.370496, "Longitude": -77.104805 }, "geometry": { "type": "Point", "coordinates": [ -77.104807171999937, 36.370503258000042 ] } },
{ "type": "Feature", "properties": { "FID": 198, "Permit": "AWS630012", "Permittee": "N G Purvis Farms Inc", "Facility": "Blue Ribbon Swine", "Type": "Swine State COC", "Region": "Fayetteville", "County": "Moore", "FirstIssue": "2002-04-17T00:00:00Z", "Issued": "2014-10-01T00:00:00Z", "Expries": "2019-09-30T00:00:00Z", "Status": "Active", "Latitude": 35.400741, "Longitude": -79.452463 }, "geometry": { "type": "Point", "coordinates": [ -79.452465834999941, 35.400747969000065 ] } },
{ "type": "Feature", "properties": { "FID": 199, "Permit": "AWC020002", "Permittee": "Herman, Ned", "Facility": "Herman Dairy Farm, Inc.", "Type": "Cattle State COC", "Region": "Mooresville", "County": "Alexander", "FirstIssue": "2003-05-23T00:00:00Z", "Issued": "2014-10-01T00:00:00Z", "Expries": "2019-09-30T00:00:00Z", "Status": "Active", "Latitude": 35.933134, "Longitude": -81.209042 }, "geometry": { "type": "Point", "coordinates": [ -81.209045389999972, 35.933141017000025 ] } },
{ "type": "Feature", "properties": { "FID": 200, "Permit": "AWI730017", "Permittee": "Whitfield, Phillip", "Facility": "Phillip Whitfield Swine Farm", "Type": "Animal Individual State", "Region": "Raleigh", "County": "Person", "FirstIssue": "2009-10-13T00:00:00Z", "Issued": "2014-12-15T00:00:00Z", "Expries": "2019-11-30T00:00:00Z", "Status": "Active", "Latitude": 36.3175, "Longitude": -79.1381 }, "geometry": { "type": "Point", "coordinates": [ -79.138102788999959, 36.31750717500006 ] } },
{ "type": "Feature", "properties": { "FID": 201, "Permit": "AWS470001", "Permittee": "Murphy-Brown LLC", "Facility": "Hog's Breath Inc / Farm 5077", "Type": "Swine State COC", "Region": "Fayetteville", "County": "Hoke", "FirstIssue": "1997-06-23T00:00:00Z", "Issued": "2014-10-01T00:00:00Z", "Expries": "2019-09-30T00:00:00Z", "Status": "Active", "Latitude": 34.871336, "Longitude": -79.302844 }, "geometry": { "type": "Point", "coordinates": [ -79.302846761999945, 34.871342859000038 ] } },
{ "type": "Feature", "properties": { "FID": 202, "Permit": "AWC020003", "Permittee": "Payne, Donald", "Facility": "Payne Dairy", "Type": "Cattle State COC", "Region": "Mooresville", "County": "Alexander", "FirstIssue": "2002-01-25T00:00:00Z", "Issued": "2014-10-01T00:00:00Z", "Expries": "2019-09-30T00:00:00Z", "Status": "Active", "Latitude": 35.873786, "Longitude": -81.141283 }, "geometry": { "type": "Point", "coordinates": [ -81.141286366999964, 35.873793007000074 ] } },
{ "type": "Feature", "properties": { "FID": 203, "Permit": "AWS770012", "Permittee": "N G Purvis Farms Inc", "Facility": "Tar Heel Swine", "Type": "Swine State COC", "Region": "Fayetteville", "County": "Richmond", "FirstIssue": "1999-04-12T00:00:00Z", "Issued": "2014-10-01T00:00:00Z", "Expries": "2019-09-30T00:00:00Z", "Status": "Active", "Latitude": 35.11705, "Longitude": -79.721867 }, "geometry": { "type": "Point", "coordinates": [ -79.721869900999934, 35.117056898000044 ] } },
{ "type": "Feature", "properties": { "FID": 204, "Permit": "AWI780063", "Permittee": "Oxendine, Curtis", "Facility": "Oxendine Pork Farm", "Type": "Animal Individual State", "Region": "Fayetteville", "County": "Robeson", "FirstIssue": "2015-03-12T00:00:00Z", "Issued": "2015-03-12T00:00:00Z", "Expries": "2020-02-28T00:00:00Z", "Status": "Active", "Latitude": 34.780381, "Longitude": -79.074619 }, "geometry": { "type": "Point", "coordinates": [ -79.074621688999969, 34.780387848000032 ] } },
{ "type": "Feature", "properties": { "FID": 205, "Permit": "AWS470007", "Permittee": "Murphy-Brown LLC", "Facility": "Farm 5786", "Type": "Swine State COC", "Region": "Fayetteville", "County": "Hoke", "FirstIssue": "1997-07-28T00:00:00Z", "Issued": "2014-10-01T00:00:00Z", "Expries": "2019-09-30T00:00:00Z", "Status": "Active", "Latitude": 34.941311, "Longitude": -79.321647 }, "geometry": { "type": "Point", "coordinates": [ -79.321649770999954, 34.941317874000049 ] } },
{ "type": "Feature", "properties": { "FID": 206, "Permit": "AWC020004", "Permittee": "Smith, Gar", "Facility": "Alan Smith Dairy Farm", "Type": "Cattle State COC", "Region": "Mooresville", "County": "Alexander", "FirstIssue": "2000-11-06T00:00:00Z", "Issued": "2014-10-01T00:00:00Z", "Expries": "2019-09-30T00:00:00Z", "Status": "Active", "Latitude": 35.847885, "Longitude": -81.054686 }, "geometry": { "type": "Point", "coordinates": [ -81.054689338999935, 35.847892005000062 ] } },
{ "type": "Feature", "properties": { "FID": 207, "Permit": "AWS930001", "Permittee": "N G Purvis Farms Inc", "Facility": "Green Acres Farm", "Type": "Swine State COC", "Region": "Raleigh", "County": "Warren", "FirstIssue": "2004-12-10T00:00:00Z", "Issued": "2015-02-20T00:00:00Z", "Expries": "2019-09-30T00:00:00Z", "Status": "Active", "Latitude": 36.4917, "Longitude": -78.1583 }, "geometry": { "type": "Point", "coordinates": [ -78.15830250099998, 36.491707247000079 ] } },